USAF,WBAN,STATION NAME,CTRY,ST,RGN,CALL,LAT,LON,ELEV(M),BEGIN,END
690014,99999,C STN  WHITE SANDS,US,NM,W,,32.35,-106.367,1224.0,19870101,19910611
690020,93218,JOLON HUNTER LIGGETT MIL RES,US,CA,W,KHGT,36.0,-121.233,317.0,19640715,19970401
690020,99999,JOLON HUNTER LIGGETT MIL RES,US,CA,W,KHGT,36.0,-121.233,317.0,20030702,20030801
690070,93217,FRITZSCHE AAF,US,CA,W,KOAR,36.683,-121.767,43.0,19600404,19930831
690090,99999,HURLBURT FLD/EXERCIS,US,FL,S,,30.433,-86.717,3.0,20081010,20081017
690110,99999,SELFRIDGE ANGB/TRAIN,US,MI,MW,,42.608,-82.835,177.0,19430614,19920507
690140,93101,EL TORO MCAS,US,CA,W,KNZJ,33.667,-117.733,116.7,19890101,19990630
690150,93121,TWENTY NINE PALMS,US,CA,W,KNXP,34.294,-116.147,610.5,19900102,20220428
690150,99999,TWENTYNINE PALMS,US,CA,W,KNXP,34.3,-116.167,626.0,19891115,19891229
690170,99999,IND SPRNG RANGE 63,US,NV,W,KL63,36.533,-115.567,972.0,19800514,20081231
690174,99999,INDIAN SPRINGS RANGE,US,NV,W,L63,36.533,-115.567,972.0,19780823,19800430
690190,13910,ABILENE DYESS AFB,US,TX,S,KDYS,32.433,-99.85,545.3,19431201,20091231
690190,99999,DYESS AFB/ABILENE,US,TX,S,,32.417,-99.85,545.0,20000103,20041230
690200,99999,GOVERNOR HYDE,US,NC,S,,35.25,-76.167,2.0,19800418,19810304
690210,99999,ALLIGATOR BRIDGE,US,NC,S,,35.9,-76.0,2.0,19800418,19840929
690220,99999,ALBEMARLE BRIDGE,US,NC,S,,35.983,-76.5,2.0,19800418,19840929
690230,24255,WHIDBEY ISLAND NAS,US,WA,W,KNUW,48.35,-122.667,14.3,19891201,20090602
690240,99999,PACIFIC BEACH,US,WA,W,KNIX,47.217,-124.2,18.0,19800603,19851031
690250,99999,KITTY HAWK SCHOOL,US,NC,S,,36.1,-75.75,3.0,19800922,19810223
690260,99999,CHEBOYGAN,US,MI,MW,,45.65,-84.467,176.0,19800611,20011023
690280,99999,PORT ISABEL (CGS),US,TX,S,,26.067,-97.167,5.0,19820627,19831116
690290,99999,PORT ARANSAS,US,TX,S,,27.833,-97.067,2.0,19820625,20041129
690310,3125,YUMA PROVING GROUND,US,AZ,W,,32.833,-114.4,98.8,19870701,19900420
690320,99999,BLAINE HARBOR MUNI,US,WA,W,WA09,48.983,-122.733,21.0,19920416,19940303
690330,99999,HOOD CANAL BRIDGE,US,OR,W,K4S2,45.667,-121.533,192.0,19910307,20080106
690500,99999,FORT CHAFFEE,US,AR,S,KQCU,35.167,-94.2,143.0,19830119,19830119
690524,99999,2 CWSS TMQ-53,US,FL,S,,30.417,-86.667,9.0,19910315,20020516
690584,99999,LZ BULL / EXERCISE,US,CA,W,,33.067,-115.067,230.1,19990602,20010606
691164,99999,REDSTONE ARSENAL,US,AL,S,,34.683,-86.683,209.0,19771026,20010323
691174,99999,ABERDEEN PVNG GRND,US,MD,S,,39.467,-76.167,18.0,19361001,20030816
691224,99999,AFWA ASSIGNED,US,CA,W,KQAM,,,,19781028,20040730
691324,99999,FORT BRAGG / TEST,US,NC,S,,35.15,-78.9,80.8,19951030,20001215
691334,99999,HILL/WENDOVER R GWC,US,UT,W,KQSL,41.05,-113.067,1299.0,19910521,20030816
691414,99999,SPEED BAG AIRFIELD,US,CA,W,,33.267,-115.417,93.0,19850424,19971123
691484,99999,FAIRCHILD AFB / EXERCISE,US,WA,W,,47.617,-117.667,750.4,19840709,19950502
691804,99999,CAMP BLANDING,US,FL,S,KQLG,29.967,-81.983,59.0,19860119,19980202
692364,99999,FALLON NAS,US,NV,W,KQAV,39.417,-118.7,1199.0,19781027,20020501
692494,99999,SUPERIOR VALLEY G R,US,CA,W,KQCK,35.333,-117.1,961.0,19950401,19991210
692534,99999,FORT CAMPBELL / TEST,US,KY,S,,36.667,87.5,114.0,19870427,19910405
692584,99999,CREECH AFB TMOS-P,US,NV,W,KQCR,36.583,-115.667,955.0,19831201,19910314
692644,99999,MUSCATATUCK TRNG CTR,US,IN,MW,KQMT,39.05,-85.617,247.0,19970724,19970724
692694,99999,FOB MIAMI NTC/EXERCI,US,CA,W,KQMY,35.283,-116.35,570.0,19910209,20020125
692704,99999,MPRC-FT STEWART,US,GA,S,KQRC,32.033,-81.667,18.0,19850125,19980530
692754,99999,2 CWSS TMQ-53,US,FL,S,,30.417,-86.667,11.0,19840922,19950830
692764,99999,2 CWSS TMQ-53,US,FL,S,,30.417,-86.667,10.0,19840925,19850205
692784,99999,KING SALMON,US,AK,W,KQRV,58.667,-156.65,14.0,19841127,20001205
693254,99999,2 CWSS FMQ-22,US,FL,S,,30.417,-86.667,8.0,19830811,20030816
693654,99999,NTC MOBILE,US,CA,W,,0.0,0.0,0.0,19810221,20001019
694300,99999,EAGLE RANGE       &,US,UT,W,,41.05,-113.067,1292.0,19800423,19910626
694604,99999,YUKON TEST AREA,US,AK,W,,64.721,-146.529,534.9,19831011,19871010
695354,99999,AFWA ASSIGNED,US,MS,S,KQNF,,,,20020212,20020331
695364,99999,AFWA ASSIGNED,US,VA,S,KQNG,,,,20010627,20081015
695414,99999,RED PASS LAKE / NTC,US,CA,W,,35.267,-116.367,683.1,20010319,20080611
695424,99999,AFWA ASSIGNED,US,CA,W,KQNM,,,,20011101,20020820
696334,99999,ORO GRANDE - EXERCISE,US,NM,W,,32.417,-105.993,1237.8,19910304,19990625
696454,99999,AUX 2 / EXERCISE,US,AZ,W,,32.533,-114.517,82.0,19840426,19920829
696464,99999,TACTS AIRFIELD / EXERCISE,US,AZ,W,,32.5,-114.15,248.1,19900809,19960709
697534,99999,FORT IRWIN,US,CA,W,KQIW,35.283,-116.617,322.0,19850218,20080201
697564,99999,STOVAL AIRFIELD / EXERCISE,US,AZ,W,,32.733,-113.633,117.0,19830901,19970418
698114,99999,METMFR 29 PALMS,US,CA,W,KQGY,34.3,-116.15,626.0,19840216,19980618
698324,99999,BOGUE FIELD MCALF,US,NC,S,KQWT,34.683,-77.033,,19960409,19960901
698414,99999,319 MISSILE SQ,US,CO,W,KQXG,40.5,-103.833,1880.0,20010320,20010411
699604,3145,YUMA MCAS,US,AZ,W,KNYL,32.65,-114.617,64.9,19870701,20091231
700001,26492,PORTAGE GLACIER,US,AK,W,PATO,60.784,-148.848,32.5,20060101,20220428
700001,99999,PORTAGE GLACIER,US,AK,W,PATO,60.783,-148.833,29.0,20040510,20051231
700197,26558,SELAWIK,US,AK,W,PASK,66.6,-159.986,7.6,20060101,20220428
700197,99999,SELAWIK,US,AK,W,PASK,66.617,-160.0,8.0,19940818,20051231
700260,27502,W POST-WILL ROGERS MEMORIAL A,US,AK,W,PABR,71.287,-156.739,8.1,19450101,20220428
700264,99999,SSDC,US,AK,W,,71.317,-155.217,0.0,19920807,19920807
700265,99999,BARROW W POST-W ROGERS ARPT,US,AK,W,,71.333,-156.633,4.0,19750228,19780130
700271,27506,BARROW POINT BARROW,US,AK,W,KPBA,71.333,-156.65,6.1,19740318,19750302
700300,27503,WAINWRIGHT AIRPORT,US,AK,W,PAWI,70.637,-160.013,12.5,19991102,20220428
700300,27508,WAINWRIGHT (DEW),US,AK,W,PAWI,70.617,-159.85,27.0,19730101,19991231
700300,99999,WAINWRIGHT (DEW),US,AK,W,PAWI,70.617,-159.85,27.0,20000101,20041231
700365,99999,SAGWON,US,AK,W,SAG,69.367,-148.7,198.0,20130106,20130106
700450,27512,LONELY,US,AK,W,LNI,70.917,-153.25,9.1,19730101,19890925
700450,99999,LONELY (DEW),US,AK,W,,70.917,-153.233,12.0,20020505,20060125
700630,27403,OLIKTOK POW 2,US,AK,W,POLI,70.5,-149.883,4.9,19730101,19990929
700630,99999,OLIKTOK LRRS,US,AK,W,POLI,70.5,-149.88,5.0,20030811,20030811
700631,25715,ATKA AIRPORT,US,AK,W,PAAK,52.22,-174.206,17.1,20060101,20130430
700631,99999,TATITLEK,US,AK,W,PAKA,60.872,-146.691,18.9,20040713,20051231
700632,26645,BUCKLAND AIRPORT,US,AK,W,PABL,65.983,-161.133,9.1,20060101,20220428
700632,99999,BUCKLAND,US,AK,W,PABL,65.983,-161.15,9.0,20040713,20051231
700633,99999,BEAUFORT SEA,US,AK,W,,0.0,0.0,-999.0,20130103,20130425
700634,27408,UGNU-KUPRAUK AIRPORT,US,AK,W,PAKU,70.331,-149.598,20.4,20060101,20220428
700634,99999,UGNU-KUPARUK AIRPORT,US,AK,W,PAKU,70.317,-149.583,20.0,19810220,20051231
700635,26465,GALBRAITH LAKE AIRPORT,US,AK,W,PAGB,68.479,-149.49,812.6,20060105,20220427
700635,99999,GALBRAITH LAKE,US,AK,W,PAGB,68.483,-149.483,814.0,19750108,20051229
700636,27405,PRUDHOE BAY,US,AK,W,PAUD,70.25,-148.333,14.0,19730101,19990614
700637,27406,DEADHORSE AIRPORT,US,AK,W,PASC,70.191,-148.48,17.7,19730101,20220428
700638,99999,FALSE PASS,US,AK,W,PAKF,54.85,-163.417,6.0,19730101,20220427
700639,99999,HAPPY VALLEY,US,AK,W,,69.167,-148.817,297.0,19740616,19780111
700860,27401,BARTER ISLAND AIRPORT,US,AK,W,PABA,70.134,-143.577,0.6,19471001,20220428
700860,99999,BARTER ISLAND,US,AK,W,PABA,70.133,-143.633,15.0,20000102,20041231
700863,99999,BARTER ISLAND LRRS,US,AK,W,PBTI,70.134,-143.577,1.5,19901104,19910621
700865,99999,BARTER ISLAND(AWOS),US,AK,W,,70.133,-143.583,2.0,19731207,19961009
700866,99999,CHALLENGE ISLAND,US,AK,W,,70.233,-146.5,-999.0,19750109,19810328
700867,99999,FRANKLIN BLUFFS,US,AK,W,,69.717,-148.683,108.0,19750108,19770816
700868,99999,ATIGUN,US,AK,W,,68.183,-149.417,1032.0,19750112,19750401
700869,99999,CHANDALAR SHELF,US,AK,W,5CD,68.067,-149.583,982.0,19750109,19780923
701040,26631,CAPE LISBURNE LRRS AIRPORT,US,AK,W,PALU,68.867,-166.133,4.9,20060101,20220428
701040,99999,CAPE LISBURNE AFS,US,AK,W,PALU,68.883,-166.133,3.0,19520829,20051231
701043,26623,POINT HOPE AIRPORT,US,AK,W,PAPO,68.35,-166.8,4.0,20060101,20220428
701043,99999,POINT HOPE AIRPORT,US,AK,W,PAPO,68.35,-166.8,4.0,19431001,20051231
701045,26649,RED DOG AIRPORT,US,AK,W,PADG,68.031,-162.903,296.9,20060103,20220427
701045,99999,RED DOG,US,AK,W,PADG,68.067,-162.833,297.0,19980226,20051230
701046,26418,CENTRAL AIRPORT,US,AK,W,PACE,65.567,-144.765,280.4,20020902,20130210
701160,26618,WALES,US,AK,W,,65.617,-168.05,5.0,19430701,19771221
701170,26634,TIN CITY LRRS AIRPORT,US,AK,W,PATC,65.563,-167.921,82.6,20060101,20220428
701170,99999,TIN CITY AFS,US,AK,W,PATC,65.567,-167.917,83.0,19530504,20051231
701175,99999,,US,AK,W,,,,,19740604,19740628
701190,99999,PORT CLARENCE CGS,US,AK,W,PAPC,65.254,-166.859,3.0,19730101,20220427
701195,26625,SHISHMAREF/NEW AIRPORT,US,AK,W,PASH,66.25,-166.089,2.1,20060101,20220428
701195,99999,SHISHMAREF,US,AK,W,PASH,66.25,-166.083,4.0,19831104,20051231
701196,102,BOB BARKER MEMORIAL AIRPORT,US,AK,W,PAIK,66.983,-160.433,51.2,20080822,20220428
701196,99999,BOB BAKER MEM,US,AK,W,PAIK,66.976,-160.437,50.6,19831222,19850630
701210,26624,POINT LAY LRRS AIRPORT,US,AK,W,PPIZ,69.733,-163.005,7.6,20060101,20220428
701210,26638,POINT LAY,US,AK,W,PPIZ,69.817,-162.917,6.0,19730101,19991231
701210,99999,POINT LAY,US,AK,W,PPIZ,69.817,-162.917,6.0,20000101,20051231
701213,26638,POINT LAY LIZ 2,US,AK,W,PIZ,69.733,-163.017,6.1,19920318,19960630
701213,99999,POINT LAY(DEW/AWOS),US,AK,W,,69.733,-163.017,6.0,19901121,19910803
701330,26616,RALPH WIEN MEMORIAL AIRPORT,US,AK,W,PAOT,66.886,-162.607,3.4,19730101,20220428
701331,99999,DEERING,US,AK,W,,66.067,-162.75,5.0,19840402,19850612
701333,26643,DEERING AIRPORT,US,AK,W,PADE,66.07,-162.761,5.4,19990102,20220428
701333,99999,DEERING,US,AK,W,PADE,66.083,-162.75,6.0,19980111,19981229
701334,99999,KOTZEBUE,US,AK,W,,66.883,-162.6,3.0,19960801,19961009
701335,26648,NOATAK AIRPORT,US,AK,W,PAWN,67.566,-162.975,26.8,20060101,20220428
701335,99999,NOATAK,US,AK,W,PAWN,67.55,-162.967,27.0,19950708,20051231
701337,103,WALES AIRPORT,US,AK,W,PAIW,65.617,-168.1,7.0,20090122,20220428
701338,99999,CHEVAK AIRPORT,US,AK,W,PAVA,61.533,-165.583,22.9,20090210,20220427
701486,26642,KIVALINA AIRPORT,US,AK,W,PAVL,67.731,-164.548,5.7,20060101,20220428
701486,99999,KIVALINA,US,AK,W,PAVL,67.733,-164.55,4.0,19990114,20051231
701620,26508,UMIAT,US,AK,W,PAUM,69.367,-152.133,85.0,19460101,20130411
701625,26542,ANAKTUVUK PASS AIRPORT,US,AK,W,PAKP,68.167,-151.767,640.1,20060101,20220428
701625,99999,ANAKTUVUK PASS,US,AK,W,PAKP,68.133,-151.733,641.0,19800911,20051231
701718,26551,AMBLER AIRPORT,US,AK,W,PAFM,67.1,-157.85,88.1,20060101,20220428
701718,99999,AMBLER,US,AK,W,PAFM,67.1,-157.85,102.0,19880105,20051231
701719,490,SHUNGNAK AIRPORT,US,AK,W,PAGH,66.888,-157.162,62.8,20091210,20211123
701719,99999,SHUNGNAK,US,AK,W,PAGH,66.888,-157.162,60.0,19850208,19891011
701730,26535,INDIAN MOUNTAIN LRRS ARPT,US,AK,W,PAIM,66.0,-153.7,388.9,20050101,20220428
701730,99999,INDIAN MOUNTAIN AFS,US,AK,W,PAIM,66.0,-153.7,389.0,19510801,20041231
701740,26533,BETTLES AIRPORT,US,AK,W,PABT,66.918,-151.519,196.5,19450101,20220428
701745,26480,CHANDALAR LAKE AIRPORT,US,AK,W,PALR,67.511,-148.493,577.6,20060101,20141009
701745,99999,CHANDALAR LAKE,US,AK,W,PALR,67.5,-148.483,585.0,19730624,20051231
701746,99999,DIETRICK (PRIVATE),US,AK,W,,67.683,-149.733,447.0,19730825,19750729
701747,26467,MERRILL PASS WEST,US,AK,W,PAER,61.25,-153.82,358.0,19730825,19750729
701747,26554,MERRILL PASS WEST,US,AK,W,PAER,61.267,-153.8,356.6,20050101,20140615
701748,99999,PROSPECT CREEK AIRPORT,US,AK,W,PAPR,66.817,-150.65,335.0,19730825,20220427
701749,99999,WISEMAN ARPT,US,AK,W,,67.4,-150.117,360.0,19940819,20020803
701780,26529,RALPH M CALHOUN MEML ARPT,US,AK,W,PATA,65.173,-152.107,68.7,19430601,20220428
701790,99999,FIVE MILE CAMP,US,AK,W,,65.933,-149.833,155.0,19771103,19850531
701791,99999,MANLEY HOT SPRINGS,US,AK,W,,65.0,-150.65,85.0,19431204,19891013
701793,26524,MANLEY HOT SPRINGS,US,AK,W,PAML,64.999,-150.638,82.9,20060101,20140501
701793,99999,MANLEY HOT SPRINGS,US,AK,W,PAML,65.0,-150.65,81.0,19900724,20051231
701795,99999,FIVE MILE CAMP,US,AK,W,,65.933,-149.833,155.0,19730825,19960625
701940,26413,FORT YUKON AIRPORT,US,AK,W,PFYU,66.567,-145.267,135.6,19730101,20220428
701940,99999,FORT YUKON,US,AK,W,PFYU,66.567,-145.267,135.0,20000102,20031231
701945,46405,ARCTIC VILLAGE AIRPORT,US,AK,W,PARC,68.115,-145.579,637.6,20060101,20220428
701945,99999,ARCTIC VILLAGE,US,AK,W,PARC,68.117,-145.567,638.0,19950708,20051231
701970,99999,CENTRAL,US,AK,W,,65.483,-144.667,252.0,20021018,20071231
701975,26422,EAGLE AIRPORT,US,AK,W,PAEG,64.776,-141.164,277.3,20060101,20220428
701975,99999,EAGLE AIRPORT,US,AK,W,PAEG,64.783,-141.15,268.0,19980408,20051231
701995,26628,CAPE DARBY REMOT COM OUTLT,US,AK,W,PAGL,64.55,-163.007,7.6,20050101,20220428
701995,99999,GOLOVIN AIRPORT,US,AK,W,PAGL,64.54,-163.04,8.0,19990114,20041231
702000,26617,NOME AIRPORT,US,AK,W,PAOM,64.511,-165.44,5.4,19400101,20220428
702004,99999,WHITE MOUNTAIN,US,AK,W,PAWM,64.689,-163.413,81.4,20111201,20220427
702005,26647,ST MARY'S AIRPORT,US,AK,W,PASM,62.062,-163.3,95.1,20060101,20220428
702005,99999,ST MARYS,US,AK,W,PASM,62.05,-163.3,95.0,19790408,20051231
702006,26502,KALTAG AIRPORT,US,AK,W,PAKV,64.321,-158.733,52.6,20060101,20220428
702006,99999,KALTAG AIRPORT,US,AK,W,PAKV,64.316,-158.73,54.0,19990114,20051231
702031,26620,MOSES POINT,US,AK,W,,64.7,-162.05,6.1,19430608,19790128
702035,26704,SAVOONGA AIRPORT,US,AK,W,PASA,63.687,-170.493,16.8,20060108,20220428
702035,99999,SAVOONGA,US,AK,W,PASA,63.683,-170.483,16.0,19870629,20051201
702040,26703,GAMBELL AIRPORT,US,AK,W,PAGM,63.767,-171.733,8.5,19870603,20220428
702040,99999,GAMBELL (AWOS),US,AK,W,PAGM,63.767,-171.733,8.0,20000101,20031231
702060,26632,NORTHEAST CAPE,US,AK,W,KOHC,63.317,-168.967,9.1,19520729,19690819
702070,26627,UNALAKLEET AIRPORT,US,AK,W,PAUN,63.883,-160.8,5.5,19430601,20220428
702070,99999,UNALAKLEET,US,AK,W,PAUN,63.883,-160.8,6.0,20000101,20031231
702075,26644,ANVIK AIRPORT,US,AK,W,PANV,62.65,-160.183,26.8,20060101,20220428
702075,99999,ANVIK,US,AK,W,PANV,62.65,-160.183,94.0,19950210,20051231
702084,26650,EMMONAK,US,AK,W,PAEM,62.785,-164.491,4.3,20060101,20220427
702084,99999,EMMONAK,US,AK,W,PAEM,62.783,-164.483,4.0,19440412,20051231
702091,99999,MOUNTAIN VILLAGE,US,AK,W,,62.083,-163.717,50.0,19441018,19450927
702120,26633,CAPE ROMANZOFF AFS,US,AK,W,PACZ,61.783,-166.033,146.0,19530401,19991231
702120,26646,CAPE ROMANZOF LRRS ARPT,US,AK,W,PACZ,61.783,-166.033,146.0,20060101,20220428
702120,99999,CAPE ROMANZOFF AFS,US,AK,W,PACZ,61.783,-166.033,146.0,20000101,20051231
702185,26622,MEKORYUK AIRPORT,US,AK,W,PAMY,60.383,-166.2,13.7,20060105,20211021
702185,99999,MEKORYUK,US,AK,W,PAMY,60.367,-166.267,15.0,19831104,20051129
702186,26651,HOOPER BAY AIRPORT,US,AK,W,PAHP,61.524,-166.147,5.5,20060101,20220428
702186,99999,HOOPER BAY,US,AK,W,PAHP,61.517,-166.133,5.0,19841105,20051231
702190,26615,BETHEL AIRPORT,US,AK,W,PABE,60.785,-161.829,32.6,19450101,20220428
702195,99999,NAPAKIAK,US,AK,W,PANA,60.683,-161.983,5.2,19940830,20220427
702220,26501,GALENA AIRPORT,US,AK,W,PAGA,64.737,-156.934,46.6,20060101,20220428
702220,99999,GALENA A.,US,AK,W,PAGA,64.733,-156.933,49.0,19420917,20051231
702223,26602,KOYUK AIRPORT,US,AK,W,PAKK,64.935,-161.155,33.5,20060101,20220428
702223,99999,KOYUK AIRPORT,US,AK,W,PAKK,64.933,-161.167,37.0,19760503,20051231
702224,99999,EAGLE AIRPORT,US,AK,W,,64.783,-141.15,268.0,19810619,19950512
702225,99999,HUSLIA,US,AK,W,PAHS,65.7,-156.383,55.0,19940103,20050817
702310,26510,MCGRATH AIRPORT,US,AK,W,PAMC,62.957,-155.61,101.0,19730101,20220428
702312,26519,FAREWELL LAKE,US,AK,W,PAFK,62.54,-153.617,321.0,19970402,19991231
702312,26555,FAREWELL LAKE SEAPLANE BASE,US,AK,W,PAFK,62.543,-153.623,3207.7,20060101,20140419
702312,99999,FAREWELL LAKE,US,AK,W,PAFK,62.54,-153.617,321.0,20000101,20051231
702315,26536,TATALINA LRRS AIRPORT,US,AK,W,PATL,62.894,-155.976,293.8,20060101,20220427
702315,99999,TATALINA LRRS,US,AK,W,PATL,62.883,-155.967,294.0,19520401,20051231
702320,26516,ANIAK AIRPORT,US,AK,W,PANI,61.582,-159.543,25.9,19730101,20220428
702320,99999,ANIAK,US,AK,W,PANI,61.583,-159.533,26.0,20000101,20031231
702325,26443,WASILLA AIRPORT,US,AK,W,PAWS,61.572,-149.541,107.9,20040702,20220428
702325,99999,WASILLA,US,AK,W,PAWS,61.572,-149.54,108.0,19980226,20041231
702350,26534,SPARREVOHN LRRS AIRPORT,US,AK,W,PASV,61.1,-155.583,484.0,20060101,20220427
702350,99999,SPARREVOHN AFS,US,AK,W,PASV,61.1,-155.567,484.0,19510711,20051231
702460,26512,MINCHUMINA,US,AK,W,PAMH,63.886,-152.302,206.7,19730101,20220428
702460,99999,MINCHUMINA,US,AK,W,PAMH,63.9,-152.267,214.0,20000101,20041230
702483,99999,FAREWELL LAKE,US,AK,W,PAFW,62.533,-153.617,323.0,19850130,19960425
702490,26526,PUNTILLA LAKE,US,AK,W,PAPT,62.091,-152.735,566.3,20060101,20220428
702490,99999,PUNTILLA,US,AK,W,PAPT,62.1,-152.75,560.0,19730101,20051231
702495,26547,HAYES RIVER AIRPORT,US,AK,W,PAHZ,61.983,-152.083,305.1,20060101,20110127
702495,99999,HAYES RIVER AIRPORT,US,AK,W,PAHZ,61.98,-152.08,305.0,19730101,20051231
702510,26528,TALKEETNA AIRPORT,US,AK,W,PATK,62.32,-150.097,106.8,19730101,20220428
702520,99999,TALKEETNA  AK,US,AK,W,,62.3,-150.417,151.0,20050213,20050213
702550,26514,SKWENTNA AIRPORT,US,AK,W,PASW,61.977,-151.217,45.7,19730101,20161001
702550,99999,SKWENTNA,US,AK,W,PASW,61.967,-151.183,45.0,20000101,20041231
702590,26523,KENAI MUNICIPAL AIRPORT,US,AK,W,PAEN,60.579,-151.242,30.2,19730101,20220428
702595,26559,SOLDOTNA AIRPORT,US,AK,W,PASX,60.476,-151.034,34.4,20060101,20220428
702595,99999,SOLDOTNA,US,AK,W,PASX,60.467,-151.033,34.0,19830502,20051231
702600,26435,NENANA MUNICIPAL AIRPORT,US,AK,W,PANN,64.547,-149.087,110.1,19430706,20220428
702600,99999,NENANA/MUN.,US,AK,W,PANN,64.55,-149.083,110.0,20000101,20031231
702605,99999,CLEAR,US,AK,W,PACL,64.301,-149.12,168.2,19471010,19471130
702606,96401,CHULITNA,US,AK,W,PAEC,62.826,-149.907,426.7,20060101,20220428
702606,99999,CHULITNA AIRPORT,US,AK,W,PAEC,62.883,-149.833,381.0,19781130,20051231
702607,25378,HOONAH SEAPLANE BASE,US,AK,W,PAOH,58.096,-135.409,0.0,20060101,20220408
702607,99999,HOONAH SEAPLANE BASE,US,AK,W,PAOH,58.12,-135.417,6.0,19781124,20051231
702610,26411,FAIRBANKS INTERNATIONAL,US,AK,W,PAFA,64.803,-147.876,131.1,19460101,20220428
702615,26498,WAINWRIGHT AAF AIRPORT,US,AK,W,PAFB,64.838,-147.614,138.4,20060103,20220428
702615,99999,WAINWRIGHT AAF,US,AK,W,PAFB,64.833,-147.617,140.0,19410206,20051230
702616,99999,OLD MAN,US,AK,W,,66.45,-150.583,389.0,19750108,19761123
702625,104,NIKOLAI AIRPORT,US,AK,W,PAFS,63.017,-154.367,126.2,20061024,20220428
702625,99999,NIKOLAI,US,AK,W,PAFS,63.02,-154.36,126.0,20080101,20081231
702626,99999,PILOT POINT,US,AK,W,PAPN,57.58,-157.58,17.0,20061024,20220426
702627,26561,RUBY AIRPORT,US,AK,W,PARY,64.727,-155.47,199.0,20061001,20220428
702628,105,MARSHALL DON HUNTER SR AIRPOR,US,AK,W,PADM,61.867,-162.033,31.1,20061024,20220428
702628,99999,MARSHALL DON HUNTER SR,US,AK,W,PADM,61.864,-162.026,31.4,20080101,20081231
702629,99999,CAPE DECISION CG HELIPORT,US,AK,W,,56.0,-134.133,10.0,20080915,20110608
702640,26414,SUMMIT,US,AK,W,PAST,63.331,-149.127,734.3,19730101,19840107
702645,46403,MCKINLEY NATIONAL PARK AIRPOR,US,AK,W,PAIN,63.733,-148.917,524.3,20060101,20220428
702645,99999,MCKINLEY NATIONAL PK,US,AK,W,PAIN,63.733,-148.917,524.0,19751202,20051231
702646,99999,MT MCKINLEY NATL PK,US,AK,W,,63.65,-148.8,625.0,19760116,19760427
702647,26499,HEALY RIVER AIRPORT,US,AK,W,PAHV,63.866,-148.969,3945.3,20060101,20120608
702647,99999,HEALY RIVER AIRPORT,US,AK,W,PAHV,63.87,-148.97,394.0,19761221,20051231
702648,46406,CANTWELL AIRPORT,US,AK,W,PATW,63.391,-148.956,667.5,20060102,20110827
702648,99999,CANTWELL CANTWELL,US,AK,W,PATW,63.4,-148.95,668.0,19831103,20051205
702650,26407,EIELSON AFB AIRPORT,US,AK,W,PAEI,64.683,-147.083,166.7,20060102,20220428
702650,99999,FAIRBANKS/EIELSON A,US,AK,W,PAEI,64.65,-147.067,167.0,19441111,20051231
702653,99999,EIELSON AFB       &,US,AK,W,,64.65,-147.067,167.0,19750814,19750814
702660,99999,FORT GREELY  AK,US,AK,W,,63.967,-145.7,398.0,19440626,19900628
702670,26415,ALLEN ARMY AIRFIELD,US,AK,W,PABI,63.993,-145.721,388.1,19451015,20220428
702673,99999,BIG DELTA ARCTIC WX,US,AK,W,,64.0,-145.717,389.0,19800303,19841204
702674,99999,CIRCLE CITY AIRPORT,US,AK,W,,65.833,-144.067,182.0,19790507,20091019
702675,26484,PAXSON AIRPORT,US,AK,W,PAXK,63.032,-145.498,823.0,20060101,20101003
702675,99999,PAXSON,US,AK,W,PAXK,63.033,-145.5,809.0,19740419,20051231
702677,99999,ISABELL PASS CAMP,US,AK,W,Z32,63.083,-145.5,978.0,19750929,19761202
702680,99999,GLENNALLEN  AK,US,AK,W,,62.1,-145.967,573.0,19750401,19900504
702685,27518,ATQASUK EDWARD BURNELL SR. ME,US,AK,W,PATQ,70.467,-157.436,29.3,20060501,20220428
702686,106,KIPNUK AIRPORT,US,AK,W,PAKI,60.9,-161.233,9.1,20060501,20220428
702686,99999,AKIAK,US,AK,W,PAKI,60.903,-161.231,9.1,20080101,20081231
702695,96402,JONESVILLE MINE AIRPORT,US,AK,W,PAJV,61.714,-148.909,167.6,20060101,20111102
702695,99999,SUTTON,US,AK,W,PAJV,61.717,-148.883,265.0,19920416,20051231
702696,99999,LAZY MTN/WOLVERINE,US,AK,W,,61.633,-149.033,236.0,19780315,20040214
702697,107,NEW STUYAHOK AIRPORT,US,AK,W,PANW,59.45,-157.333,92.1,20061010,20220428
702697,99999,NEW STUYAHOK,US,AK,W,PANW,59.45,-157.33,92.0,20080101,20081231
702700,489,BRYANT ARMY AIRFIELD HELIPORT,US,AK,W,PAFR,61.266,-149.653,118.3,20130415,20220428
702710,26425,GULKANA AIRPORT,US,AK,W,PAGK,62.159,-145.459,481.1,19450101,20220428
702711,26439,SHEEP MOUNTAIN AIRPORT,US,AK,W,PASP,61.812,-147.507,853.4,20050101,20111101
702711,99999,SHEEP MOUNTAIN,US,AK,W,PASP,61.817,-147.55,799.0,19970203,20041231
702715,46407,SKELTON AIRPORT,US,AK,W,PAZK,61.949,-147.169,1002.5,20060101,20220428
702715,99999,EUREKA SKELTON AIR,US,AK,W,PAZK,61.933,-147.167,1002.0,19950708,20051231
702716,99999,TAHNETA PASS,US,AK,W,5GN,61.817,-147.55,900.0,19730102,19960104
702717,99999,SELAWIK,US,AK,W,PALK,66.6,-159.986,7.6,19730101,20160930
702719,99999,SNOWSHOE LAKE,US,AK,W,,62.033,-142.667,735.0,19750917,19761207
702720,26401,ELMENDORF AFB AIRPORT,US,AK,W,PAED,61.253,-149.794,64.6,20060101,20220428
702720,99999,ANCHORAGE/ELMENDORF,US,AK,W,PAED,61.25,-149.8,59.0,19410310,20051231
702725,26491,LAKE HOOD SEAPLANE BASE,US,AK,W,PALH,61.179,-149.965,25.1,20020101,20220428
702725,99999,ANCHORAGE LAKE HOOD,US,AK,W,PALH,61.183,-149.967,22.0,19730104,20011231
702730,26451,TED STEVENS ANCHORAGE INTL,US,AK,W,PANC,61.169,-150.028,38.0,19730101,20220428
702735,26409,MERRILL FIELD AIRPORT,US,AK,W,PAMR,61.216,-149.857,38.4,19450101,20220428
702735,99999,MERRILL FLD,US,AK,W,PAMR,61.2,-149.833,42.0,20000101,20031231
702736,99999,FT RICHARDSON/BRYN&,US,AK,W,,61.267,-149.65,115.0,19760625,19830721
702740,25331,PALMER MUNICIPAL AIRPORT,US,AK,W,PAAQ,61.595,-149.092,70.9,19990101,20220428
702740,99999,PALMER,US,AK,W,PAAQ,61.595,-149.089,74.0,19730101,19981231
702745,26560,WILLOW AIRPORT,US,AK,W,PAUO,61.748,-150.054,62.5,20060101,20111101
702745,99999,WILLOW AIRPORT,US,AK,W,PAUO,61.754,-150.052,67.0,19910207,20051231
702746,26497,BIRCHWOOD AIRPORT,US,AK,W,PABV,61.416,-149.507,29.3,20060101,20220428
702746,99999,BIRCHWOOD,US,AK,W,PABV,61.417,-149.5,29.0,19940103,20051231
702750,26442,NATIONAL WEATHER SERVICE OFFI,US,AK,W,PAVW,61.13,-146.352,29.0,19730101,20140401
702754,99999,VALDEZ,US,AK,W,,61.133,-146.25,37.0,19960815,19961009
702755,46404,MCCARTHY AIRPORT,US,AK,W,PAMX,61.437,-142.904,466.7,20060101,20140901
702755,99999,MCCARTHY,US,AK,W,PAMX,61.433,-142.933,455.0,19740421,20051231
702756,26479,VALDEZ PIONEER FIELD AIRPORT,US,AK,W,PAVD,61.132,-146.244,18.3,20060101,20220428
702756,99999,VALDEZ PIONEER FIEL,US,AK,W,PAVD,61.133,-146.25,36.0,19750501,20051231
702757,26444,WHITTIER AIRPORT,US,AK,W,PAWR,60.783,-148.733,11.9,20060101,20120520
702757,99999,WHITTIER,US,AK,W,PAWR,60.767,-148.683,9.0,19750501,20051231
702758,27517,ALPINE AIRSTRIP,US,AK,W,PALP,70.344,-150.945,5.5,20060101,20220428
702758,99999,DEADHORSE ALPINE AIR,US,AK,W,PALP,70.333,-150.933,5.0,20040608,20051231
702770,26438,SEWARD AIRPORT,US,AK,W,PAWD,60.129,-149.418,4.1,20060101,20220428
702770,99999,SEWARD,US,AK,W,PAWD,60.117,-149.45,18.0,19450101,20051231
702790,26417,CAPE HINCHINBROOK,US,AK,W,,60.233,-146.65,56.0,19740101,19800622
702795,99999,HINCHINBROOK,US,AK,W,,60.4,-146.083,110.0,19730101,19740529
702910,26412,NORTHWAY AIRPORT,US,AK,W,PAOR,62.961,-141.938,523.2,19450101,20220428
702913,46402,DEVILS MOUNTAIN LODGE AIRPORT,US,AK,W,PABN,62.402,-142.995,877.8,20060101,20141001
702913,99999,NABESNA/DEVIL MTN,US,AK,W,PABN,62.4,-143.0,878.0,19920416,20051231
702915,26486,DUFFY'S TAVERN AIRPORT,US,AK,W,PADT,62.709,-143.981,668.1,20060101,20110701
702915,99999,SLANA AIRPORT,US,AK,W,PADT,62.7,-143.983,730.0,19740904,20051231
702923,26440,TANACROSS,US,AK,W,TSG,63.383,-143.333,472.0,19440522,19500901
702924,99999,TOK,US,AK,W,PATJ,63.317,-142.717,509.0,19771006,19850729
702960,26410,M.K.(MUDHOLE) SMITH ARPT,US,AK,W,PACV,60.486,-145.445,14.7,19420611,20220428
702965,99999,JOHNSTONE POINT,US,AK,W,,60.483,-146.6,14.0,19750401,19820729
702980,26445,YAKATAGA,US,AK,W,PACY,60.083,-142.5,11.0,19730315,19990706
702986,26557,BIG RIVER LAKE,US,AK,W,PALV,60.814,-152.297,18.3,20060101,20190808
702986,99999,BIG RIVER LAKE,US,AK,W,PALV,60.817,-152.3,12.0,19780823,20051231
702987,99999,NIGHTMUTE,US,AK,W,,60.467,-164.7,4.0,19840911,19850509
703050,25623,CAPE HEWENHAM LRRS AIRPORT,US,AK,W,PAEH,58.65,-162.067,164.9,20060101,20220427
703050,99999,CAPE NEWENHAM AFS,US,AK,W,PAEH,58.65,-162.067,161.0,19530726,20051231
703051,26521,HOLY CROSS AIRPORT,US,AK,W,PAHC,62.183,-159.767,6.1,20060101,20220428
703051,99999,HOLY CROSS,US,AK,W,PAHC,62.183,-159.783,21.0,20050929,20051231
703052,26652,KALSKAG AIRPORT,US,AK,W,PALG,61.536,-160.341,16.8,20060117,20220428
703052,99999,KALSKAG,US,AK,W,PALG,61.533,-160.333,17.0,20050929,20051130
703053,26654,RUSSIAN MISSION AIRPORT,US,AK,W,PARS,61.775,-161.319,15.5,20060101,20220428
703053,99999,RUSSIAN MISSION,US,AK,W,PARS,61.767,-161.317,15.0,19760512,20051231
703054,108,SCAMMON BAY AIRPORT,US,AK,W,PACM,61.85,-165.567,4.3,20050929,20220428
703054,99999,SCAMMON BAY,US,AK,W,PACM,61.845,-165.571,4.3,20080101,20081231
703055,109,MANOKOTAK AIRPORT,US,AK,W,PAMB,58.983,-159.05,15.9,20050929,20220428
703055,99999,MANOKOTAK,US,AK,W,PAMB,58.99,-159.05,16.0,20080101,20080919
703056,26635,MOUNTAIN VILLAGE AIRPORT,US,AK,W,PAMO,62.095,-163.682,102.7,20060101,20220426
703056,99999,MOUNTAIN VILLAGE,US,AK,W,PAMO,62.1,-163.683,15.0,20050929,20051231
703057,26653,TOKSOOK BAY AIRPORT,US,AK,W,PAOO,60.541,-165.087,18.0,20060101,20220428
703057,99999,TOOKSOK BAY,US,AK,W,PAOO,60.533,-165.083,21.0,20050929,20051231
703058,110,NELSON LAGOON AIRPORT,US,AK,W,PAOU,56.017,-161.167,4.3,20050930,20220428
703058,99999,NELSON LAGOON,US,AK,W,PAOU,56.01,-161.16,4.0,20080101,20081231
703059,99999,KING COVE,US,AK,W,PAVC,55.17,-162.27,47.0,20050930,20220427
703061,25521,IGIUGIG AIRPORT,US,AK,W,PAIG,59.324,-155.902,27.4,20060101,20220428
703061,99999,IGIUGIG,US,AK,W,PAIG,59.3,-155.9,27.0,20050929,20051231
703080,25713,ST PAUL ISLAND AIRPORT,US,AK,W,PASN,57.155,-170.223,8.0,19431105,20220428
703160,25624,COLD BAY AIRPORT,US,AK,W,PACD,55.221,-162.732,22.0,19420304,20220428
703165,25617,SAND POINT AIRPORT,US,AK,W,PASD,55.319,-160.521,6.4,20050101,20220428
703165,99999,SAND POINT,US,AK,W,,55.333,-160.5,6.0,19730107,20041231
703210,25513,DILLINGHAM AIRPORT,US,AK,W,PADL,59.05,-158.517,26.2,20060101,20220428
703210,99999,DILLINGHAM MUNI,US,AK,W,PADL,59.05,-158.517,29.0,19730101,20051231
703260,25503,KING SALMON AIRPORT,US,AK,W,PAKN,58.683,-156.656,20.0,19420110,20220428
703263,99999,KING SALMON,US,AK,W,,58.683,-156.683,17.0,19801002,19960630
703330,25508,PORT HEIDEN AIRPORT,US,AK,W,PAPH,56.959,-158.632,26.8,20060101,20220428
703330,99999,PORT HEIDEN,US,AK,W,PAPH,56.95,-158.617,29.0,19420803,20051231
703333,25518,CHIGNIK AIRPORT,US,AK,W,PAJC,56.311,-158.373,5.5,20060101,20220427
703333,99999,CHIGNIK AIRPORT,US,AK,W,PAJC,56.31,-158.367,6.0,19980226,20051231
703334,25519,EGEGIK AIRPORT,US,AK,W,PAII,58.185,-157.386,28.0,20060101,20220428
703334,99999,EGEGIK(AWOS),US,AK,W,PAII,58.417,-157.367,28.0,19930520,20051231
703335,99999,SOUTH NAKNEK ARPT,US,AK,W,PFWS,58.7,-157.0,49.4,19940818,20220427
703400,25506,ILIAMNA AIRPORT,US,AK,W,PAIL,59.749,-154.909,46.4,19730101,20220428
703406,26546,PORT ALSWORTH AIRPORT,US,AK,W,PALJ,60.204,-154.316,79.3,20050101,20220425
703406,99999,PORT ALSWORTH AIR,US,AK,W,PALJ,60.2,-154.317,85.0,19730101,20041231
703407,26553,SLEETMUTE AIRPORT,US,AK,W,PASL,61.717,-157.15,54.3,20060101,20220428
703407,99999,SLEETMUTE,US,AK,W,PASL,61.717,-157.15,54.0,19940314,20051231
703410,25507,HOMER AIRPORT,US,AK,W,PAHO,59.642,-151.491,19.1,19730101,20220428
703430,25402,MIDDLETON ISLAND METEOROLOGY,US,AK,W,PAMD,59.433,-146.333,30.5,19450101,20220428
703430,25403,MIDDLETON ISLAND,US,AK,W,PAMD,59.433,-146.333,14.0,19771101,19991231
703430,99999,MIDDLETON ISLAND,US,AK,W,PAMD,59.433,-146.333,14.0,20000101,20041231
703431,25402,MIDDLETON ISLAND AUT,US,AK,W,PAMD,59.433,-146.333,14.0,19730105,19771121
703500,25501,KODIAK AIRPORT,US,AK,W,PADQ,57.751,-152.488,5.0,19450101,20220428
703570,99999,SITKINAK(USCG),US,AK,W,,56.55,-154.133,17.0,19730104,19790105
703600,99999,CAPE SAINT ELIAS,US,AK,W,,59.8,-144.6,18.0,19730101,19810424
703604,99999,HOMER,US,AK,W,,59.633,-151.467,26.0,19790316,20081231
703605,25604,PLATINUM AIRPORT,US,AK,W,PAPM,59.011,-161.82,4.6,20060323,20220428
703605,99999,PLATINUM,US,AK,W,PAPM,59.0,-161.817,5.0,19421001,20050927
703606,25629,TOGIAK AIRPORT,US,AK,W,PATG,59.067,-160.367,6.1,20060101,20220427
703606,99999,TOGIAK,US,AK,W,PATG,59.05,-160.383,6.0,19891201,20051231
703610,25339,YAKUTAT AIRPORT,US,AK,W,PAYA,59.512,-139.671,12.6,19410501,20220428
703615,99999,OCEAN CAPE (CGS),US,AK,W,,59.517,-139.767,3.0,19770610,19770610
703620,25335,SKAGWAY AIRPORT,US,AK,W,PAGY,59.454,-135.328,7.4,19431001,20220428
703621,25516,SELDOVIA AIRPORT,US,AK,W,PASO,59.446,-151.707,8.7,20060101,20220428
703621,99999,SELDOVIA ARPT,US,AK,W,PASO,59.45,-151.7,9.0,19980316,20051231
703625,99999,HAINES BOAT HARBOR,US,AK,W,,59.233,-135.433,10.0,19730719,19960429
703626,25323,HAINES,US,AK,W,PAHN,59.243,-135.511,6.4,19960613,20220426
703627,99999,PEDRO BAY,US,AK,W,,59.783,-154.133,14.0,20040702,20040928
703640,99999,ELDRED ROCK,US,AK,W,,58.967,-135.217,10.0,19730101,20010718
703644,27515,NUIQSUT AIRPORT,US,AK,W,PAQT,70.213,-150.994,11.3,20060101,20220428
703644,99999,NUIQSUT,US,AK,W,PAQT,70.2,-151.0,12.0,19990114,20051231
703650,25316,CAPE SPENCER,US,AK,W,KCSP,58.2,-136.633,27.1,19730101,19891011
703655,26552,HUSLIA AIRPORT,US,AK,W,PAHL,65.698,-156.351,54.9,20060101,20220428
703655,99999,HUSLIA,US,AK,W,PAHL,65.7,-156.633,65.0,20041228,20051231
703656,99999,QUINHAGAK AIRPORT,US,AK,W,PAQH,59.75,-161.833,13.0,20140211,20220427
703670,25322,GUSTAVUS,US,AK,W,PAGS,58.411,-135.709,12.2,19760801,20220428
703670,99999,GUSTAVUS,US,AK,W,PAGS,58.425,-135.707,10.0,20000101,20041231
703675,99999,SISTERS ISLAND,US,AK,W,SSR,58.167,-135.25,11.0,19730101,19840701
703710,25333,SITKA ROCKY GUTIERREZ ARPT,US,AK,W,PASI,57.047,-135.367,6.0,19730101,20220428
703715,99999,BIORKA ISLAND SAWRS,US,AK,W,,56.85,-135.533,15.0,19730101,19780829
703724,99999,WILLOW WEST,US,AK,W,,61.75,-150.05,63.4,19771203,19910124
703810,25309,JUNEAU INTERNATIONAL,US,AK,W,PAJN,58.354,-134.556,5.9,19730101,20220428
703815,99999,PT. RETREAT (AMOS),US,AK,W,,58.4,-134.95,15.0,19730101,19891011
703816,99999,FUNTER BAY SEAPLANE,US,AK,W,,58.25,-134.9,0.0,19740428,19960630
703817,25357,ELFIN COVE SEAPLANE BASE,US,AK,W,PAEL,58.192,-136.344,6.1,20060101,20220428
703817,99999,ELFIN COVE SEAPLANE,US,AK,W,PAEL,58.2,-136.35,0.0,19741219,20051231
703830,25310,ANGOON SEAPLANE BASE,US,AK,W,PAGN,57.499,-134.586,8.5,19730101,20220428
703835,25628,ST. GEORGE AIRPORT,US,AK,W,PAPB,56.575,-169.663,32.0,20060101,20211230
703835,99999,ST GEORGE,US,AK,W,PAPB,56.567,-169.65,38.0,19980226,20051231
703855,25369,KAKE AIRPORT,US,AK,W,PAFE,56.967,-133.9,52.4,20060101,20220428
703855,99999,KAKE,US,AK,W,PAFE,56.95,-133.9,52.0,19730101,20051231
703860,25329,JAMES A JOHNSON AIRPORT,US,AK,W,PAPG,56.806,-132.937,32.6,19730101,20220428
703860,99999,PETERSBURG,US,AK,W,PAPG,56.817,-132.967,0.0,20000101,20041231
703863,99999,FREDERICKS POINT,US,AK,W,,56.8,-132.817,3.0,19850618,19850618
703865,99999,LEVEL ISLAND,US,AK,W,,56.467,-133.1,30.0,19730901,19780329
703870,25338,WRANGELL AIRPORT,US,AK,W,PAWG,56.473,-132.387,17.1,20060101,20220428
703870,99999,WRANGELL,US,AK,W,PAWG,56.484,-132.37,13.0,19730101,20051231
703880,25315,CAPE DECISION,US,AK,W,KCDE,56.0,-134.133,14.9,19730101,19891011
703880,99999,CAPE DECISION(AMOS),US,AK,W,CDE,56.0,-134.133,14.9,20001201,20041123
703884,25376,HYDABURG SEAPLANE BASE,US,AK,W,PAHY,55.206,-132.828,0.0,20060101,20220428
703884,99999,HYDABURG SEAPLANE BA,US,AK,W,PAHY,55.2,-132.833,0.0,19781205,20051231
703885,99999,CAPE POLE SEAPLANE,US,AK,W,Z27,55.967,-133.8,1.0,19740318,19780801
703886,25348,PORT ALEXANDER SPB,US,AK,W,PAAP,56.247,-134.645,3.7,20060101,20151117
703886,99999,PORT ALEXANDER,US,AK,W,PAAP,56.247,-134.65,0.0,19790507,20051231
703888,111,SHAKTOOLIK AIRPORT,US,AK,W,PFSH,64.37,-161.224,7.0,20101101,20220428
703891,99999,ELIM AIRPORT,US,AK,W,PFEL,64.617,-162.267,49.0,20130731,20220427
703894,25367,KLAWOCK AIRPORT,US,AK,W,PAKW,55.582,-133.075,20.8,20000101,20220428
703894,99999,KLAWOCK,US,AK,W,PAKW,55.567,-133.067,24.0,19801015,19991231
703920,25317,CRAIG SEAPLANE,US,AK,W,CGA,55.483,-133.15,0.0,19730102,19740129
703920,99999,CRAIG SEAPLANE,US,AK,W,,55.483,-133.15,0.0,20020425,20020425
703921,99999,,US,AK,W,,,,,19740301,19740331
703925,112,KOLIGANEK AIRPORT,US,AK,W,PAJZ,59.733,-157.267,82.3,20070521,20220428
703925,99999,KOLIGANEK,US,AK,W,PAJZ,59.73,-157.26,82.0,20080101,20081231
703926,99999,AKHIOK,US,AK,W,PAKH,56.933,-154.183,13.0,20070521,20220427
703950,25325,KETCHIKAN INTL AIRPORT,US,AK,W,PAKT,55.359,-131.722,25.7,19730101,20220428
703980,25308,ANNETTE ISLAND AIRPORT,US,AK,W,PANT,55.039,-131.579,33.2,19410714,20191001
703985,25377,METLAKATLA SEAPLANE BASE,US,AK,W,PAMM,55.131,-131.578,0.0,20060101,20220428
703985,99999,METLAKATLA SEAPLANE,US,AK,W,PAMM,55.133,-131.583,0.0,19980226,20051231
704090,45709,ATTU,US,AK,W,,52.833,173.183,21.0,19430607,19871020
704140,45715,EARECKSON AIR STATION AIRPORT,US,AK,W,PASY,52.717,174.1,37.2,20050101,20220428
704140,99999,EARECKSON AS,US,AK,W,PASY,52.717,174.1,31.0,19430621,20041231
704540,25704,ADAK NAS,US,AK,W,PADK,51.883,-176.65,5.2,19421030,20220428
704540,99999,ADAK (NAS),US,AK,W,PADK,51.883,-176.65,5.0,20000101,20031231
704545,99999,AMCHITKA ISLAND,US,AK,W,,51.383,179.267,69.0,19430131,19931001
704820,25626,NIKOLSKI,US,AK,W,,52.95,-168.85,21.0,19420910,19940514
704851,99999,UMNAK (FORT GLEN),US,AK,W,,53.367,-167.9,39.0,19420226,19501123
704890,25616,DUTCH HARBOR AIRPORT,US,AK,W,PADU,53.895,-166.543,3.1,20081124,20220428
704890,99999,DUTCH HARBOR,US,AK,W,PADU,53.9,-166.55,4.0,19460101,20081123
704891,99999,NORTH ROCK HARBOR,US,AK,W,,53.883,-166.533,4.0,19760801,19761018
704895,99999,CAPE SARICHEF ARPT,US,AK,W,,54.6,-164.933,9.0,19730104,19800802
704896,25625,PORT MOLLER,US,AK,W,KPML,56.0,-160.517,321.0,19590626,19740306
704897,25515,DRIFTWOOD BAY,US,AK,W,KDFB,53.967,-166.85,395.9,19730207,19731224
704898,113,ROBERT (BOB) CURTIS MEMORIAL,US,AK,W,PFNO,66.818,-161.022,17.1,20110525,20220428
704898,99999,REBERT (BOB) CURTIS MEMORIAL,US,AK,W,PFNO,66.818,-161.022,16.8,19730103,19910124
711680,99999,SIOUX FALLS CLIMATE,US,SD,MW,,43.733,-96.633,481.5,19941001,20220427
713407,99999,SLEETMUTE,US,AK,W,SLQ,61.717,-157.15,54.0,19940103,19940404
720021,99999,BOOTHVILLE HELIPORT,US,LA,S,,29.35,-89.43,1.0,20040224,20130430
720046,99999,NEWHALL,US,CA,W,K3A6,34.37,-118.57,427.0,20040224,20110905
720048,99999,EUGENE ISLAND 330,US,LA,S,,28.08,-92.7,0.0,20040316,20090801
720059,99999,VALLE,US,AZ,W,K40G,35.651,-112.148,1828.5,20040408,20040614
720110,53983,LLANO MUNICIPAL AIRPORT,US,TX,S,KAQO,30.784,-98.662,335.9,20050101,20220428
720110,99999,LLANO MUNI,US,TX,S,KAQO,30.784,-98.662,336.0,20040806,20041231
720113,54829,OAKLAND/TROY AIRPORT,US,MI,MW,KVLL,42.543,-83.178,218.2,20050101,20220428
720113,99999,OAKLAND TROY,US,MI,MW,KVLL,42.543,-83.178,222.0,20041230,20041231
720120,63837,HILTON HEAD AIRPORT,US,SC,S,KHXD,32.217,-80.7,7.3,20060101,20220428
720120,99999,HILTON HEAD,US,SC,S,KHXD,32.217,-80.7,6.0,20040904,20051231
720122,114,STARR BROWNING AIRSTRIP,US,MT,W,K8S0,48.6,-113.117,1419.2,20140731,20150930
720129,99999,AUSTIN ARPT,US,NV,W,KTMT,39.468,-117.197,1748.1,20170510,20220427
720137,4867,MORS MUNI-J.R. WSBRN FD AP,US,IL,MW,KC09,41.425,-88.419,178.0,20060101,20220426
720137,99999,MORRIS MUNI J R WAS,US,IL,MW,KC09,41.433,-88.417,178.0,20040224,20051231
720141,4868,MARSHALL CO,US,IL,MW,KC75,41.019,-89.386,173.1,20060101,20130430
720141,99999,MARSHALL CO,US,IL,MW,,41.019,-89.386,173.1,20040224,20051231
720151,3049,ALPINE-CASPARIS MUNI ARPT,US,TX,S,KE38,30.383,-103.683,1375.6,20060101,20220428
720151,99999,ALPINE CASPARIS MUNI,US,TX,S,KE38,30.384,-103.684,1376.0,20040426,20051231
720159,99999,HIGH ISLAND 264C,US,LA,S,KH08,28.467,-93.733,30.0,20040414,20130510
720160,63884,KEE FLD,US,WV,S,KI16,37.601,-81.559,543.5,20060101,20130501
720160,99999,KEE FLD,US,WV,S,,37.6,-81.559,543.5,20040803,20051231
720165,99999,WARNER SPRINGS GLIDERPORT,US,CA,W,,34.264,-116.854,2056.8,20070307,20130430
720168,99999,COVINGTON MUNI,US,TN,S,KM04,35.583,-89.587,85.3,20170427,20220427
720169,116,WASHINGTON REGIONAL AIRPORT,US,MO,MW,KFYG,38.583,-91.0,149.1,20120209,20220428
720170,63851,METROPOLIS MUNICIPAL AIRPORT,US,IL,MW,KM30,37.186,-88.751,117.0,20060101,20220428
720170,99999,METROPOLIS MUNICIPAL,US,IL,MW,KM30,37.186,-88.751,117.0,20040803,20051231
720171,99999,WILLIAM L WHITEHURST FLD,US,TN,S,KM08,35.214,-89.043,152.1,20160804,20220427
720172,53996,MENA INTERMOUNTAIN MUNICIPAL,US,AR,S,KMEZ,34.545,-94.203,328.9,20060101,20220428
720172,99999,MENA INTERMOUNTAIN,US,AR,S,KMEZ,34.545,-94.203,329.0,20041103,20051231
720175,53919,MONTCELO MUNI/ELLIS FLD AP,US,AR,S,KLLQ,33.636,-91.756,85.0,20050101,20220428
720193,117,LONNIE POOL FIELD WEAVERVILLE,US,CA,W,KO54,40.747,-122.922,716.3,20101030,20200812
720198,54813,MUNISING LAKESHORE,US,MI,MW,KP53,46.412,-86.65,186.5,20060101,20220428
720198,99999,MUNISING LAKESHORE O,US,MI,MW,KP53,46.417,-86.65,187.0,20041028,20051231
720202,118,TILLAMOOK AIRPORT,US,OR,W,KTMK,45.417,-123.817,11.3,20050103,20220428
720202,99999,TILLAMOOK AWS,US,OR,W,KTMK,45.417,-123.817,11.0,20040429,20081231
720254,119,CHEHALIS CENTRALIA AIRPORT,US,WA,W,KCLS,46.683,-122.983,54.3,20070216,20220428
720254,99999,CHEHALIS CENTRALIA,US,WA,W,KCLS,46.677,-122.983,53.6,20080101,20081231
720255,99999,MIAMI MUNI,US,OK,S,KMIO,36.909,-94.888,246.3,20190828,20220427
720257,63835,EARLY COUNTY AIRPORT,US,GA,S,KBIJ,31.397,-84.895,65.2,20060101,20220428
720257,99999,EARLY CO,US,GA,S,KBIJ,31.4,-84.9,65.0,20040525,20051231
720258,4997,ISEDOR IVERSON AIRPORT,US,MN,MW,KHZX,46.619,-93.31,374.3,20060101,20220428
720258,99999,ISEDOR IVERSON,US,MN,MW,KHZX,46.617,-93.317,374.0,20040525,20051231
720259,63844,MACON CO,US,NC,S,K1A5,35.223,-83.419,615.7,20060101,20130501
720259,99999,MACON CO,US,NC,S,,35.223,-83.419,615.7,20040525,20051231
720261,53976,BRIDGEPORT MUNICIPAL ARPT,US,TX,S,KXBP,33.175,-97.828,259.4,20060101,20220428
720261,99999,BRIDGEPORT MUNI,US,TX,S,KXBP,33.183,-97.833,260.0,20040525,20051231
720262,94076,MC ELROY AFLD,US,CO,W,K20V,40.054,-106.369,2258.9,20060101,20130430
720262,99999,MC ELROY AFLD,US,CO,W,,40.054,-106.369,2258.9,20040525,20051231
720263,63834,ELBERT CO-PATZ FLD AIRPORT,US,GA,S,K27A,34.095,-82.816,183.8,20050101,20190913
720263,99999,ELBERT CO PATZ FLD,US,GA,S,,34.095,-82.816,183.8,20040525,20041231
720264,63827,TAZEWELL COUNTY AIRPORT,US,VA,S,K6V3,37.064,-81.798,808.3,20060101,20130430
720264,99999,TAZEWELL COUNTY ARPT,US,VA,S,KJFZ,37.067,-81.8,808.0,20040525,20051231
720265,63833,THOMAS C RUSSELL FLD ARPT,US,AL,S,KALX,32.915,-85.963,209.1,20060101,20220428
720265,99999,THOMAS C RUSSELL FLD,US,AL,S,KALX,32.917,-85.967,209.0,20040525,20051231
720266,54809,WARSAW MUNICIPAL AIRPORT,US,IN,MW,KASW,41.275,-85.84,259.1,20060101,20220429
720266,99999,WARSAW MUNICIPAL,US,IN,MW,KASW,41.267,-85.833,259.0,20040525,20051231
720267,23224,AUBURN MUNICIPAL AIRPORT,US,CA,W,KAUN,38.955,-121.082,466.7,20060101,20220428
720267,99999,AUBURN MUNICIPAL,US,CA,W,KAUN,38.955,-121.082,468.0,20040525,20051231
720268,53882,DCATR CO INDUS AIRPK ARPT,US,GA,S,KBGE,30.983,-84.633,43.0,20060101,20220428
720268,99999,DECATUR CO INDUSTRI,US,GA,S,KBGE,30.967,-84.633,43.0,20040525,20051231
720269,12982,BROOKS COUNTY AIRPORT,US,TX,S,KBKS,27.207,-98.121,34.1,20060101,20220428
720269,99999,BROOKS CO,US,TX,S,KBKS,27.2,-98.117,34.0,20040525,20051231
720271,3044,BIG SRNG MCMHN-WRKLE ARPT,US,TX,S,KBPG,32.213,-101.521,784.3,20060101,20220428
720271,99999,BIG SPRING MCMAHON,US,TX,S,KBPG,32.217,-101.517,784.0,20040525,20051231
720272,94282,SKAGIT REGIONAL AIRPORT,US,WA,W,KBVS,48.467,-122.417,42.7,20060101,20220428
720272,99999,SKAGIT RGNL,US,WA,W,KBVS,48.467,-122.417,44.0,20040525,20051231
720273,12981,BAY CITY MUNICIPAL AIRPORT,US,TX,S,KBYY,28.973,-95.863,13.7,20060101,20220428
720273,99999,BAY CITY MUNI,US,TX,S,KBYY,28.967,-95.867,14.0,20040525,20051231
720274,93799,COLUMBUS CO MUNICIPAL ARPT,US,NC,S,KCPC,34.273,-78.715,29.9,20060101,20220428
720274,99999,COLUMBUS CO MUNI,US,NC,S,KCPC,34.267,-78.717,30.0,20040525,20051231
720275,4872,TOLEDO SUBURBAN AIRPORT,US,MI,MW,KDUH,41.736,-83.655,203.9,20060101,20220428
720275,99999,LAMBERTVILLE,US,MI,MW,KDUH,41.733,-83.65,204.0,20040525,20051231
720276,12983,EDINBURG INTL AIRPORT,US,TX,S,KEBG,26.442,-98.129,24.4,20060101,20220428
720276,99999,EDINBURG INTL,US,TX,S,KEBG,26.442,-98.122,23.0,20040525,20051231
720277,63843,SHELBY MUNICIPAL AIRPORT,US,NC,S,KEHO,35.256,-81.601,258.2,20060101,20220428
720277,99999,SHELBY MUNI,US,NC,S,KEHO,35.256,-81.601,258.0,20040525,20051231
720278,3704,EMPORIA-GRENVLE RGNL ARPT,US,VA,S,KEMV,36.687,-77.483,38.7,20060101,20220428
720278,99999,EMPORIA GREENSVILLE,US,VA,S,KEMV,36.687,-77.483,39.0,20040525,20051231
720279,3705,CURTIS L BROWN JR FLD ARPT,US,NC,S,KEYF,34.602,-78.578,40.5,20060101,20220428
720279,99999,C L BROWN JR FLD,US,NC,S,KEYF,34.6,-78.583,41.0,20040525,20051231
720281,53969,WILBARGER CO,US,TX,S,KF05,34.226,-99.284,385.6,20060101,20130430
720281,99999,WILBARGER CO,US,TX,S,,34.226,-99.284,385.6,20040525,20051231
720282,3736,FIRST FLIGHT AIRPORT,US,NC,S,KFFA,36.018,-75.671,4.0,20060101,20220428
720282,99999,FIRST FLIGHT,US,NC,S,KFFA,36.018,-75.671,4.0,20040525,20051231
720283,4927,FILLMORE COUNTY AIRPORT,US,MN,MW,KFKA,43.677,-92.18,388.9,20060101,20220428
720283,99999,FILLMORE CO,US,MN,MW,KFKA,43.677,-92.18,389.0,20040525,20051231
720284,4877,FITCH H BEACH AIRPORT,US,MI,MW,KFPK,42.574,-84.811,267.6,20060101,20220428
720284,99999,CHARLOTTE,US,MI,MW,KFPK,42.567,-84.817,271.0,20040525,20051231
720285,3734,MIDDLE PENINSULA REGIONAL AIR,US,VA,S,KFYJ,37.521,-76.765,7.3,20060101,20220428
720285,99999,MIDDLE PENINSULA RGN,US,VA,S,KFYJ,37.517,-76.767,7.0,20040525,20051231
720286,53977,GRANBURY MUNICIPAL ARPT,US,TX,S,KGDJ,32.444,-97.817,237.1,20060101,20220428
720286,99999,GRANBURY MUNI,US,TX,S,KGDJ,32.45,-97.817,237.0,20040525,20051231
720287,53967,GRAYSON COUNTY AIRPORT,US,TX,S,KGYI,33.714,-96.674,228.3,20060101,20220428
720287,99999,GRAYSON CO,US,TX,S,KGYI,33.714,-96.674,228.0,20040525,20051231
720288,3711,HENDERSON-OXFORD AIRPORT,US,NC,S,KHNZ,36.361,-78.529,160.6,20060101,20220428
720288,99999,HENDERSON OXFORD,US,NC,S,KHNZ,36.367,-78.533,161.0,20040525,20051231
720289,63836,THOMSON-MCDUFFIE CO ARPT,US,GA,S,KHQU,33.53,-82.516,151.8,20050101,20220428
720289,99999,THOMSON MCDUFFIE CO,US,GA,S,KHQU,33.533,-82.517,152.0,20040525,20041231
720291,53970,MESQUITE METROPOLITAN ARPT,US,TX,S,KHQZ,32.747,-96.531,136.3,20060101,20220428
720291,99999,MESQUITE METRO,US,TX,S,KHQZ,32.75,-96.533,136.0,20040525,20051231
720293,4989,INDEPENDENCE MUNICIPAL APT,US,IA,MW,KIIB,42.453,-91.948,298.1,20060101,20220429
720293,99999,INDEPENDENCE MUNI,US,IA,MW,KIIB,42.45,-91.95,298.0,20040525,20051231
720294,53898,WASHINGTON-WILKES CO ARPT,US,GA,S,KIIY,33.78,-82.816,196.6,20061028,20220428
720294,99999,WASHINGTON WILKES CO,US,GA,S,KIIY,33.783,-82.817,197.0,20040525,20040831
720295,53972,HILLSBORO MUNICIPAL ARPT,US,TX,S,KINJ,32.084,-97.097,208.8,20060101,20220428
720295,99999,HILLSBORO MUNI,US,TX,S,KINJ,32.083,-97.1,209.0,20040525,20051231
720296,53945,JASPER COUNTY-BELL FLD APT,US,TX,S,KJAS,30.886,-94.035,64.9,20060101,20220428
720296,99999,JASPER CO BELL FLD,US,TX,S,KJAS,30.886,-94.035,65.0,20040525,20051231
720297,3730,WILLIAMSBURG-JAMESTOWN APT,US,VA,S,KJGG,37.239,-76.716,14.9,20060101,20220428
720297,99999,WILLIAMSBURG,US,VA,S,KJGG,37.233,-76.717,15.0,20040525,20051231
720298,53971,CHEROKEE COUNTY AIRPORT,US,TX,S,KJSO,31.869,-95.218,206.4,20060101,20220428
720298,99999,JACKSONVILLE,US,TX,S,KJSO,31.867,-95.217,206.0,20040525,20051231
720299,53966,MID-WAY REGIONAL AIRPORT,US,TX,S,KJWY,32.456,-96.913,228.3,20060101,20220428
720299,99999,MIDLOTHIAN/WAXAHATC,US,TX,S,KJWY,32.45,-96.917,217.0,20040525,20051231
720300,99999,WARNER-ROBINS(NEXRAD),US,GA,S,KJGX,32.683,-83.35,159.0,20051224,20051224
720301,63846,PLANTATION AIRPARK,US,GA,S,KJYL,32.646,-81.596,57.3,20060101,20220428
720301,99999,PLANTATION AIRPARK,US,GA,S,KJYL,32.645,-81.596,57.0,20040525,20051231
720302,53963,CRKVIL-RED RIVER CO ARPT,US,TX,S,KLBR,33.593,-95.064,134.1,20060101,20170326
720302,99999,CLARKSVILLE RED RIVE,US,TX,S,KLBR,33.593,-96.064,134.0,20040525,20051231
720303,53973,HEARNE MUNICIPAL AIRPORT,US,TX,S,KLHB,30.872,-96.622,86.9,20060101,20220428
720303,99999,HEARNE MUNI,US,TX,S,KLHB,30.867,-96.617,87.0,20040525,20051231
720304,64752,WINGS FIELD AIRPORT,US,PA,NE,KLOM,40.1,-75.267,92.1,20050101,20220428
720304,99999,WINGS FLD,US,PA,NE,KLOM,40.133,-75.267,92.0,20040525,20041231
720305,53964,DECATUR MUNICIPAL AIRPORT,US,TX,S,KLUD,33.254,-97.581,319.1,20060101,20220428
720305,99999,DECATUR MUNI,US,TX,S,KLUD,33.25,-97.583,319.0,20040525,20051231
720306,53879,LEE'S SUMMIT MUNICIPAL APT,US,MO,MW,KLXT,38.958,-94.371,304.8,20060101,20220428
720306,99999,LEE'S SUMMIT,US,MO,MW,KLXT,38.956,-94.373,306.0,20040525,20051231
720307,63804,MADISON CO EXECUTIVE ARPT,US,AL,S,KMDQ,34.861,-86.557,230.1,20060101,20220428
720307,99999,HUNTSVILLE,US,AL,S,KMDQ,34.861,-86.557,230.0,20040525,20051231
720308,4992,MILLARD AIRPORT,US,NE,MW,KMLE,41.196,-96.112,319.7,20060101,20220428
720308,99999,MILLARD,US,NE,MW,KMLE,41.196,-96.112,320.0,20040525,20051231
720309,4947,MOUNT PLEASANT MUNI ARPT,US,IA,MW,KMPZ,40.947,-91.511,223.7,20060101,20220428
720309,99999,MT PLEASANT MUNI,US,IA,MW,KMPZ,40.95,-91.517,224.0,20040525,20051231
720311,53962,MOUNT PLEASANT RGNL ARPT,US,TX,S,KOSA,33.096,-94.961,110.6,20060101,20220428
720311,99999,MT PLEASANT,US,TX,S,KOSA,33.1,-94.967,111.0,20040525,20051231
720312,4964,PELLA MUNICIPAL AIRPORT,US,IA,MW,KPEA,41.4,-92.946,269.8,20060101,20220428
720312,99999,PELLA MUNI,US,IA,MW,KPEA,41.4,-92.95,270.0,20040525,20051231
720313,3052,PERRY LEFORS FIELD AIRPORT,US,TX,S,KPPA,35.613,-100.996,989.1,20060101,20220429
720313,99999,PERRY LEFORS FLD,US,NM,W,KPPA,35.617,-100.983,989.0,20040525,20051231
720314,93983,PALESTINE MUNICIPAL ARPT,US,TX,S,KPSN,31.78,-95.706,128.9,20060101,20220428
720314,99999,PALESTINE MUNI,US,TX,S,KPSN,31.783,-95.7,129.0,20040525,20051231
720315,3045,PERRYTON OCHILTREE CO ARPT,US,TX,S,KPYX,36.414,-100.75,889.4,20060101,20220428
720315,99999,PERRYTON OCHILTREE,US,TX,S,KPYX,36.417,-100.75,889.0,20040525,20051231
720316,12984,NUECES COUNTY ARIPORT,US,TX,S,KRBO,27.779,-97.691,24.1,20060101,20220428
720316,99999,UECES CO,US,TX,S,KRBO,27.783,-97.683,24.0,20040716,20051231
720317,3735,STAFFORD REGIONAL AIRPORT,US,VA,S,KRMN,38.398,-77.456,64.6,20060101,20220428
720317,99999,STAFFORD RGNL,US,VA,S,KRMN,38.4,-77.45,64.0,20040525,20051231
720318,53965,GRAHAM MUNICIPAL AIRPORT,US,TX,S,KRPH,33.11,-98.555,342.3,20060101,20220428
720318,99999,GRAHAM MUNI,US,TX,S,KRPH,33.11,-98.555,342.0,20040525,20051231
720319,63841,ROBINSON MUNICIPAL AIRPORT,US,IL,MW,KRSV,39.016,-87.65,140.8,20060101,20220428
720319,99999,ROBINSON MUNI,US,IL,MW,KRSV,39.017,-87.65,141.0,20040525,20051231
720320,53981,CLEBURNE MUNICIPAL AIRPORT,US,TX,S,KCPT,32.354,-97.434,260.3,20060101,20220428
720320,99999,CLEBURNE MUNI,US,TX,S,KCPT,32.35,-97.433,260.0,20040803,20051231
720321,4893,CHEBOYGAN COUNTY AIRPORT,US,MI,MW,KSLH,45.654,-84.519,193.6,20060101,20220428
720321,99999,CHEBOYGAN CO,US,MI,MW,KSLH,45.65,-84.517,195.0,20040525,20051231
720322,4129,SANDPOINT AIRPORT,US,ID,W,KSZT,48.299,-116.56,648.3,20060101,20220428
720322,99999,SANDPOINT,US,ID,W,KSZT,48.3,-116.567,650.0,20040525,20051231
720323,93947,GILLESPIE CO,US,TX,S,KT82,30.243,-98.91,516.6,20060101,20220428
720323,99999,GILLESPIE CO,US,TX,S,,30.243,-98.909,516.6,20040525,20051231
720324,64753,QUAKERTOWN AIRPORT,US,PA,NE,KUKT,40.435,-75.382,160.3,20060101,20220428
720324,99999,QUAKERTOWN,US,PA,NE,KUKT,40.433,-75.383,160.0,20040525,20051231
720326,4981,VINTON VETERANS MEMORIAL AIRP,US,IA,MW,KVTI,42.219,-92.026,257.6,20060101,20220428
720326,99999,VINTON VETERANS MEM,US,IA,MW,KVTI,42.217,-92.033,258.0,20040525,20051231
720327,4995,MENOMONIE MUNICIPAL AIRPORT-S,US,WI,MW,KLUM,44.892,-91.868,272.8,20060101,20220428
720327,99999,MENOMONIE AFLD,US,WI,MW,KLUM,44.883,-91.867,273.0,20040525,20051231
720328,63832,UPSHUR COUNTY RGNL AIRPORT,US,WV,S,KW22,39.0,-80.274,498.4,20060101,20220428
720328,99999,UPSHUR CO RGNL,US,WV,S,KW22,39.0,-80.267,498.0,20040525,20051231
720329,99999,CABLE,US,CA,W,KCCB,34.112,-117.688,438.6,20171207,20220427
720330,63853,MOUNT CARMEL MUNICIPAL AIRPOR,US,IL,MW,KAJG,38.607,-87.727,161.2,20060101,20220428
720330,99999,MT CARMEL MUNI,US,IL,MW,KAJG,38.6,-87.733,131.0,20040803,20051231
720331,99999,KENNETT MEM,US,MO,MW,KTKX,36.226,-90.037,79.9,20151210,20220427
720333,53175,CORONA MUNICIPAL AIRPORT,US,CA,W,KAJO,33.898,-117.602,162.5,20060907,20220428
720333,99999,CORONA MUNI,US,CA,W,KAJO,33.9,-117.6,162.0,20080101,20081231
720334,93764,GAITHERSBURG MONTGOMERY COUNT,US,MD,S,KGAI,39.167,-77.167,164.3,20071017,20220428
720334,99999,MONTGOMERY CO AIRPARK,US,MD,S,KGAI,39.168,-77.166,164.3,20080101,20081231
720339,121,RYAN FIELD AIRPORT,US,AZ,W,KRYN,32.15,-111.167,737.0,20071115,20220428
720339,99999,RYAN FLD,US,AZ,W,KRYN,32.142,-111.175,736.7,20080101,20081231
720340,54818,FRANKFORT DOW MEMORIAL FIELD,US,MI,MW,KFKS,44.626,-86.201,192.6,20060101,20220428
720340,99999,FRANKLIN DOW MEM FLD,US,MI,MW,KFKS,44.625,-86.201,193.0,20040824,20051231
720342,53947,WATONGA AIRPORT,US,OK,S,KJWG,35.864,-98.421,471.8,20060101,20220429
720342,99999,WATONGA RGNL,US,OK,S,KJWG,35.867,-98.421,472.0,20041109,20051231
720343,54852,WAUPACA MUNICIPAL AIRPORT,US,WI,MW,KPCZ,44.333,-89.02,251.8,20060101,20220428
720343,99999,WAUPACA MUNI,US,WI,MW,KPCZ,44.333,-89.017,252.0,20041109,20051231
720344,54920,CHEROKEE MUNICIPAL AIRPORT/,US,IA,MW,KCKP,42.732,-95.556,373.7,20060101,20220429
720344,99999,CHEROKEE MUNI,US,IA,MW,KCKP,42.733,-95.55,374.0,20050406,20051231
720345,94086,RALPH WENZ FIELD AIRPORT,US,WY,W,KPNA,42.796,-109.807,2159.8,20060101,20220428
720345,99999,RALPH WENZ FLD,US,WY,W,KPNA,42.8,-109.8,2160.0,20041109,20051231
720346,53991,ALLEN PARISH AIRPORT,US,LA,S,KACP,30.75,-92.688,32.6,20050408,20220428
720347,63877,GREENE COUNTY REGIONAL AIRPOR,US,GA,S,K3J7,33.598,-83.139,206.4,20060101,20220428
720347,99999,GREENE COUNTY RGNL,US,GA,S,K3J7,33.6,-83.133,206.0,20050427,20051231
720348,63886,BALDWIN COUNTY AIRPORT,US,GA,S,KMLJ,33.154,-83.241,117.0,20060101,20220428
720348,99999,BALDWIN CO,US,GA,S,KMLJ,33.154,-83.241,117.0,20050427,20051231
720351,54919,OSKALOOSA MUNICIPAL AIRPORT,US,IA,MW,KOOA,41.226,-92.491,256.0,20060101,20220428
720351,99999,OSKALOOSA MUNI,US,IA,MW,KOOA,41.233,-92.5,256.0,20050507,20051231
720352,99999,MISSISSIPPI CANYON,US,LA,S,KCYD,28.17,-89.22,1.0,20050507,20220426
720353,63875,MIDDLESBORO-BELL COUNTY AIRPO,US,KY,S,K1A6,36.611,-83.738,351.7,20060101,20220428
720353,99999,MIDDLESBORO BELL CO,US,KY,S,K1A6,36.617,-83.733,352.0,20050524,20051231
720354,63901,ALTUS/QUARTZ MOUNTAIN REGIONA,US,OK,S,KAXS,34.699,-99.338,436.8,20050524,20220428
720355,3732,GREATER CUMBERLAND REGIONAL A,US,MD,S,KCBE,39.6,-78.767,236.2,20060428,20220428
720355,99999,GREATER CUMBERLAND,US,MD,S,KCBE,39.617,-78.767,236.0,20050524,20050524
720356,13999,CLINTON REGIONAL AIRPORT,US,OK,S,KCLK,35.538,-98.933,492.6,20050611,20220429
720357,53993,CUSHING MUNICIPAL AIRPORT,US,OK,S,KCUH,35.95,-96.773,279.2,20060101,20220428
720357,99999,CUSHING MUNI,US,OK,S,KCUH,35.95,-96.767,279.0,20050611,20051231
720358,53999,EL RENO REGIONAL AIRPORT,US,OK,S,KRQO,35.473,-98.006,431.9,20050817,20220428
720359,23902,SEMINOLE MUNICIPAL AIRPORT,US,OK,S,KSRE,35.275,-96.675,312.1,20050611,20220428
720361,63870,FLORALA MUNI,US,AL,S,K0J4,31.043,-86.312,95.7,20060511,20220428
720362,63874,MAC CRENSHAW MEMORIAL AIRPORT,US,AL,S,KPRN,31.847,-86.614,134.9,20060901,20220428
720363,63872,WEEDON FIELD AIRPORT,US,AL,S,KEUF,31.952,-85.131,86.8,20060901,20220428
720365,24267,BROOKINGS AIRPORT,US,OR,W,KBOK,42.074,-124.29,139.9,20050802,20220427
720365,99999,BROOKINGS AIRPORT,US,OR,W,KBOK,42.074,-124.29,140.0,20050729,20081231
720366,63879,BRAXTON CO,US,WV,S,K48I,38.687,-80.652,388.6,20060101,20090815
720366,99999,BRAXTON CO,US,WV,S,,38.687,-80.652,387.1,20050801,20051231
720367,54927,PAYNESVILLE MUNICIPAL AP,US,MN,MW,KPEX,45.372,-94.746,359.7,20050812,20220428
720367,99999,PAYNESVILLE MUNI,US,MN,MW,KPEX,45.372,-94.747,359.7,20080101,20081231
720368,54924,SLAYTON MUNICIPAL AIRPORT,US,MN,MW,KDVP,43.987,-95.783,494.7,20050811,20220429
720369,4135,DRIGGS-REED MEMORIAL AIRPORT,US,ID,W,KDIJ,43.743,-111.098,1898.6,20061024,20220428
720371,54850,HREE RIVERS MUNICIPAL DR HAIN,US,MI,MW,KHAI,41.96,-85.593,251.2,20061024,20220428
720373,92824,PLANT CITY MUNICIPAL AIRPORT,US,FL,S,KPCM,28.0,-82.164,46.9,20061024,20220427
720374,92825,PETER O KNIGHT AIRPORT,US,FL,S,KTPF,27.916,-82.449,2.4,20061024,20220428
720375,54844,DRUMMOND ISLAND AIRPORT,US,MI,MW,KDRM,46.007,-83.743,202.7,20060831,20220428
720376,63880,THE ALBERTVILLE MUNI ARPT-THO,US,AL,S,K8A0,34.229,-86.256,314.6,20060403,20220428
720377,13917,NEWPORT MUNICIPAL AIRPORT,US,AR,S,KM19,35.633,-91.167,72.9,20060501,20220428
720377,99999,NEWPORT MUNI,US,AR,S,KM19,35.638,-91.176,72.8,20080101,20081231
720378,122,NEW CASTLE MUNICIPAL AIRPORT,US,PA,NE,KUCP,41.033,-80.417,327.1,20060501,20220428
720378,99999,NEW CASTLE MUNI,US,PA,NE,KUCP,41.025,-80.413,326.7,20080101,20081231
720379,63882,WAYNE COUNTY AIRPORT,US,KY,S,KEKQ,36.855,-84.856,293.5,20060501,20220428
720381,63885,JACK EDWARDS AIRPORT,US,AL,S,KJKA,30.291,-87.672,4.9,20060501,20220428
720382,123,ST MICHAEL AIRPORT,US,AK,W,PAMK,63.49,-162.11,28.0,20060501,20220428
720382,99999,ST MICHAEL,US,AK,W,PAMK,63.49,-162.11,28.0,20080101,20081231
720383,53847,WHITING FIELD NAVAL AIR STATI,US,FL,S,KNDZ,30.697,-87.021,49.9,20070116,20220428
720384,124,BAY BRIDGE AIRPORT,US,MD,S,KW29,38.967,-76.333,5.2,20070401,20220428
720384,99999,STEVENSVILLE,US,MD,S,KW29,38.967,-76.333,5.0,20080101,20081231
720385,419,BERTHOUD PASS,US,CO,W,K0CO,39.8,-105.766,4113.3,20070401,20220428
720385,99999,BERTHOUD PASS,US,CO,W,K0CO,39.8,-105.767,4113.0,20080101,20081231
720386,125,WILLMAR MUNICIPAL AIRPORT JOH,US,MN,MW,KBDH,45.117,-95.133,344.1,20070724,20220428
720386,99999,WILLMAR MUNI,US,MN,MW,KBDH,45.117,-95.133,343.0,20050101,20081231
720387,99999,HOBBS,US,NM,W,KHBB,32.767,-103.217,1130.0,20070401,20120227
720388,469,PIERCE COUNTY AIRPORT THUN FI,US,WA,W,KPLU,47.104,-122.287,164.3,20070401,20220428
720388,99999,PUYALLUP THUN FIELD,US,WA,W,KPLU,47.1,-122.283,164.0,20080101,20081231
720389,99999,ST MARY'S RGNL / LEONARD TOWN,US,MD,S,,38.317,-76.55,43.3,20070521,20130430
720391,127,BEEVILLE MUNICIPAL AIRPORT,US,TX,S,KBEA,28.35,-97.717,82.3,20070625,20220429
720391,99999,BEEVILLE MUNI,US,TX,S,KBEA,28.35,-97.717,82.0,20080101,20081231
720392,128,HOMERVILLE AIRPORT,US,GA,S,KHOE,31.056,-82.767,57.3,20070521,20220428
720392,99999,HOMERVILLE,US,GA,S,KHOE,31.056,-82.774,56.7,20080101,20081231
720393,129,HEREFORD MUNICIPAL AIRPORT,US,TX,S,KHRX,34.85,-102.333,1153.1,20070521,20220428
720393,99999,HEREFORD MUNI,US,TX,S,KHRX,34.858,-102.326,1153.7,20080101,20081231
720394,428,DEXTER B FLORENCE MEMORIAL FI,US,AR,S,KADF,34.1,-93.066,55.8,20130501,20220428
720394,99999,DEXTER B FLORENCE MEM FLD,US,AR,S,KADF,34.1,-93.066,55.5,20080101,20081231
720395,130,PLEASANTON MUNICIPAL AIRPORT,US,TX,S,KPEZ,28.95,-98.517,131.1,20070521,20220428
720395,99999,PLEASANTON MUNI,US,TX,S,KPEZ,28.954,-98.52,131.1,20080101,20081231
720396,99999,TP MCCAMPBELL,US,TX,S,,27.913,-97.212,5.5,20070521,20070717
720397,131,OHIO UNIVERSITY AIRPORT SNYDE,US,OH,MW,KUNI,39.217,-82.233,233.2,20070521,20220428
720397,99999,OHIO UNIVERSITY SNYDER FLD,US,OH,MW,KUNI,39.211,-82.231,233.5,20080101,20081231
720398,99999,WAUTOMA MUNI,US,WI,MW,,44.042,-89.304,261.8,20070521,20130425
720399,99999,CAMP BLANDING AAF,US,FL,S,K2CB,29.952,-81.98,59.7,20080602,20141003
720401,133,CLINTON MUNICIPAL AIRPORT,US,AR,S,KCCA,35.6,-92.45,157.3,20070628,20220428
720401,99999,CLINTON MUNI,US,AR,S,KCCA,35.6,-92.45,157.0,20080101,20081231
720402,99999,SKYHAVEN,US,MO,MW,K9K4,38.784,-93.803,242.3,20070628,20080106
720403,99999,KICKAPOO DOWNTOWN AIRPARK,US,TX,S,KT47,33.858,-98.49,304.2,20070628,20071015
720404,134,KICKAPOO DOWNTOWN AIRPORT,US,TX,S,KCWC,33.85,-98.483,304.2,20071114,20220428
720404,99999,KICKAPOO DOWNTOWN AIRPORT,US,TX,S,KCWC,33.85,-98.483,304.0,20080101,20081231
720405,436,BLAIR MUNICIPAL AIRPORT,US,NE,MW,KBTA,41.412,-96.109,395.9,20090101,20220428
720405,99999,BLAIR MUNI AIRPORT,US,NE,MW,KBTA,41.417,-96.117,403.9,20080107,20081231
720406,135,GNOSS FIELD AIRPORT,US,CA,W,KDVO,38.15,-122.55,1.2,20140731,20220428
720406,99999,GNOSS FIELD AIRPORT,US,CA,W,KDVO,38.15,-122.55,0.6,20071114,20140730
720407,462,OCEAN COUNTY AIRPORT,US,NJ,NE,KMJX,39.928,-74.292,25.0,20071114,20220428
720407,99999,ROBERT J MILLER AIRPARK,US,NJ,NE,KMJX,39.933,-74.3,25.0,20080101,20081231
720408,136,CHESTER COUNTY GO CARLSON AIR,US,PA,NE,KMQS,39.983,-75.867,201.2,20071203,20220428
720408,99999,COATESVILLE/CARLSON AIRPORT,US,PA,NE,KMQS,39.983,-75.867,201.0,20080101,20081231
720409,99999,BLAIRSVILLE AIRPORT,US,GA,S,KDZJ,34.85,-83.983,582.0,20080101,20220427
720411,137,ANGEL FIRE AIRPORT,US,NM,W,KAXX,36.422,-105.29,2554.2,20090101,20220428
720411,99999,ANGEL FIRE,US,NM,W,KAXX,36.417,-105.29,2554.2,20080107,20081231
720412,54943,PERRY MUNICIPAL AIRPORT,US,IA,MW,KPRO,41.828,-94.16,308.8,20090101,20220428
720412,99999,PERRY MUNI,US,IA,MW,KPRO,41.828,-94.16,309.0,20080115,20081231
720413,138,POSEY FIELD AIRPORT,US,AL,S,K1M4,34.267,-87.6,284.1,20090101,20220428
720413,99999,HALEYVIILLE / POSEY FIELD,US,AL,S,K1M4,34.267,-87.6,284.0,20080229,20081231
720414,139,KNOX COUNTY AIRPORT,US,OH,MW,K4I3,40.333,-82.517,363.0,20090101,20220428
720414,99999,KNOX COUNTY,US,OH,MW,K4I3,40.333,-82.517,363.0,20080229,20081231
720415,140,FREMONT MUNICIPAL AIRPORT,US,MI,MW,KFFX,43.433,-86.0,253.3,20090101,20220428
720415,99999,FREMONT MUNI,US,MI,MW,KFFX,43.433,-86.0,253.0,20080229,20081231
720417,99999,JOHNSON (STANTON CO MUNI),US,KS,MW,K2K3,37.583,-101.733,1013.5,20160302,20220427
720421,3043,ATWOOD-RAWLNS CO CTY CO AP,US,KS,MW,KADT,39.84,-101.042,911.7,20201015,20220428
720422,3037,SHALTZ FIELD AIRPORT,US,KS,MW,KCBK,39.428,-101.046,971.1,20120403,20220428
720423,99999,WELLINGTON MUNI,US,KS,MW,KEGT,37.324,-97.388,388.0,20220130,20220427
720424,99999,CAMP RED DEVIL,US,CO,W,K1PW,38.5,-104.917,1816.9,20131119,20131119
720425,99999,HUGOTON MUNI,US,KS,MW,KHQG,37.163,-101.371,954.9,20151020,20220427
720426,141,INDEPENDENT MUNICIPAL AIRPORT,US,KS,MW,KIDP,37.158,-95.778,251.2,20100604,20220428
720431,99999,LARNED PAWNEE CO,US,KS,MW,KLQR,38.209,-99.086,613.0,20170615,20180828
720433,99999,NORTON MUNI,US,KS,MW,KNRN,39.85,-99.895,726.3,20181017,20220427
720434,99999,OAKLEY MUNI,US,KS,MW,KOEL,39.11,-100.816,928.1,20190425,20220427
720436,142,ATKINSON MUNICIPAL AIRPORT,US,KS,MW,KPTS,37.45,-94.733,290.2,20100113,20220428
720437,143,CHEYENNE COUNTY MUNICIPAL AIR,US,KS,MW,KSYF,39.767,-101.8,1040.3,20120423,20220428
720438,99999,SCOTT CITY MUNI,US,KS,MW,KTQK,38.474,-100.885,903.1,20190429,20220427
720439,99999,ULYSSES,US,KS,MW,KULS,37.604,-101.374,934.8,20180524,20220427
720443,99999,MADISONVILLE MUNI,US,KY,S,,37.355,-87.4,133.8,20111021,20130430
720445,99999,CAMPBELLVILLE / TAYLOR CO,US,KY,S,KAAS,37.358,-85.309,280.7,20180719,20220427
720446,99999,SAMUELS FLD / BARDSTOWN,US,KY,S,KBRY,37.814,-85.5,203.9,20171207,20220427
720447,437,KYLE OAKLEY FIELD AIRPORT,US,KY,S,KCEY,36.665,-88.373,176.2,20101109,20220428
720448,144,STUART POWELL FIELD AIRPORT,US,KY,S,KDVK,37.578,-84.77,312.1,20090101,20220428
720448,99999,STUART POWELL FLD,US,KY,S,KDVK,37.578,-84.77,311.5,20080325,20081231
720449,99999,ASHLAND RGNL,US,KY,S,KDWU,38.555,-82.738,166.4,20140813,20220427
720451,99999,ADDINGTON FLD,US,KY,S,KEKX,37.686,-85.925,236.2,20161110,20220427
720452,99999,FLEMING/MASON AIRPORT,US,KY,S,KFGX,38.542,-83.743,278.3,20140307,20220427
720455,145,MADISON AIRPORT,US,KY,S,KI39,37.633,-84.333,305.1,20101216,20220427
720456,146,MOUNT STERLING MONTGOMERY COU,US,KY,S,KIOB,38.067,-83.983,311.2,20120531,20220428
720457,99999,WENDELL H FORD ARPT,US,KY,S,KCPF,37.387,-83.262,383.0,20200430,20220427
720458,476,BIG SANDY REGIONAL AIRPORT,US,KY,S,KSJS,37.751,-82.637,372.5,20120531,20220428
720464,99999,PIKE CO HATCHER FLD,US,KY,S,KPBX,37.562,-82.566,449.0,20140923,20220427
720465,99999,WILLIAMSBURG (WHITLEY CO ARPT,US,KY,S,KBYL,36.8,-84.2,358.8,20160302,20220427
720466,99999,SUPERDOME HELIPORT,US,LA,S,KVSH,29.95,-90.083,15.2,20120726,20150128
720467,148,GEORGE R CARR MEMORIAL AIR FI,US,LA,S,KBXA,30.817,-89.867,36.6,20120824,20220428
720468,466,ST LANDRY PARISH AIRPORT AHAR,US,LA,S,KOPL,30.558,-92.099,23.2,20130502,20220428
720472,99999,STEVEN A BEAN MUNI,US,ME,NE,K8B0,44.992,-70.665,556.3,20170116,20220427
720475,99999,NORTHWEST MISSOURI RGNL,US,MO,MW,KEVU,40.353,-94.915,350.5,20170105,20220427
720476,455,HANNIBAL REGIONAL AIRPORT,US,MO,MW,KHAE,39.725,-91.444,234.7,20121115,20220428
720477,99999,FLOYD W JONES LEBANON,US,MO,MW,KLBO,37.648,-92.652,402.6,20170630,20220427
720478,99999,LAWRENCE SMITH MEM,US,MO,MW,KLRY,38.611,-94.342,278.9,20161216,20220427
720479,149,MONETT MUNICIPAL AIRPORT,US,MO,MW,KHFJ,36.9,-94.017,401.1,20090201,20220428
720481,3817,MALDEN FAA AIRPORT,US,MO,MW,KMAW,36.6,-89.983,92.1,20200110,20200430
720481,99999,MALDEN MUNI,US,MO,MW,KMAW,36.601,-89.992,89.9,20160517,20220427
720482,99999,OMAR N BRADLEY,US,MO,MW,KMBY,39.464,-92.427,264.3,20170924,20220427
720483,99999,MARSHALL MEM MUNI,US,MO,MW,KMHL,39.096,-93.203,237.4,20141202,20220427
720484,99999,MEXICO MEM,US,MO,MW,KMYJ,39.158,-91.818,250.9,20160426,20220427
720487,99999,WARSAW MUNI,US,MO,MW,KRAW,38.347,-93.345,285.3,20170908,20220427
720488,99999,SIKESTON MEM MUNI,US,MO,MW,KSIK,36.899,-89.562,96.0,20150128,20220427
720491,150,GWINNER ROGER MELROE FIELD AI,US,ND,MW,KGWR,46.217,-97.633,386.2,20140701,20220428
720491,99999,GWINNER ROGER MELROE FLD,US,ND,MW,KGWR,46.219,-97.643,385.9,20101227,20140630
720492,151,CALEDONIA COUNTY AIRPORT,US,VT,NE,KCDA,44.567,-72.017,362.1,20090101,20220428
720492,99999,CALEDONIA COUNTY AIRPORT,US,VT,NE,KCDA,44.567,-72.017,362.0,20080422,20081231
720493,54758,NEWPORT AP,US,VT,NE,KEFK,44.883,-72.233,278.9,20090101,20220428
720493,99999,NEWPORT STATE,US,VT,NE,KEFK,44.889,-72.229,283.5,20080423,20081231
720494,152,FRANKLIN COUNTY STATE AIRPORT,US,VT,NE,KFSO,44.933,-73.1,70.1,20080401,20220429
720498,153,CHESTERFIELD COUNTY AIRPORT,US,VA,S,KFCI,37.4,-77.517,72.2,20100517,20220428
720499,154,HAMPTON ROADS EXECUTIVE AIRPO,US,VA,S,KPVG,36.783,-76.45,7.0,20110503,20220428
720501,155,TAPPAHANNOCK ESSEX COUNTY AIR,US,VA,S,KXSA,37.85,-76.883,41.2,20090101,20220428
720501,99999,ESSEX CO AIRPORT,US,VA,S,KXSA,37.85,-76.883,41.0,20080401,20081231
720504,99999,TALLADEGA MUNI,US,AL,S,KASN,33.57,-86.051,160.9,20120106,20220410
720505,156,WALKER COUNTY AIRPORT BEVILL,US,AL,S,KJFX,33.902,-87.314,147.2,20110207,20220428
720507,99999,BESSEMER AIPORT,US,AL,S,KEKY,33.313,-86.926,213.1,20160714,20220427
720508,99999,MERKEL FLD SYLACAUGA MUNI,US,AL,S,KSCD,33.172,-86.306,173.4,20140114,20220427
720511,99999,BRITTON MUNI,US,SD,MW,KBTN,45.815,-97.743,401.7,20210914,20220427
720516,99999,AFTON MUNI,US,WY,W,KAFO,42.711,-110.942,1896.2,20131113,20220427
720517,24165,KEMMERER MUNICIPAL AIRPORT,US,WY,W,KEMM,41.824,-110.557,2220.5,20130627,20220428
720518,449,FORT BRIDGER AIRPORT,US,WY,W,KFBR,41.393,-110.406,2145.5,20130801,20220428
720518,99999,FORT BRIDGER AIRPORT,US,WY,W,KFBR,41.392,-110.107,2144.0,20120720,20120720
720519,99999,POWELL MUNI,US,WY,W,KPOY,44.867,-108.793,1552.0,20140707,20220427
720521,475,SHIVELY FIELD AIRPORT,US,WY,W,KSAA,41.444,-106.828,2138.5,20130502,20220428
720522,443,DUBOIS MUNICIPAL AIRPORT,US,WY,W,KDUB,43.548,-109.69,2224.1,20130514,20220428
720524,99999,FREMONT CO AIRPORT,US,CO,W,,38.428,-105.106,1657.8,20120713,20130430
720528,3064,CENTRAL COLORADO REGIONAL AP,US,CO,W,KAEJ,38.698,-106.07,2421.9,20100401,20220428
720529,429,HOPKINS FIELD AIRPORT,US,CO,W,KAIB,38.239,-108.563,1810.5,20121206,20211016
720529,99999,HOPKINS FIELD,US,CO,W,KAIB,38.233,-108.567,1811.0,20080704,20080704
720531,158,BLAKE FIELD AIRPORT,US,CO,W,KAJZ,38.783,-108.067,1583.1,20120209,20220428
720532,159,HARRIET ALEXANDER FIELD AIRPO,US,CO,W,KANK,38.533,-106.05,2294.2,20091121,20220428
720533,160,BOULDER MUNICIPAL AIRPORT,US,CO,W,KBDU,40.033,-105.217,1612.1,20100201,20220428
720534,161,ERIE MUNICIPAL AIRPORT,US,CO,W,KEIK,40.017,-105.05,1564.2,20140701,20220428
720534,99999,ERIE MUNI,US,CO,W,KEIK,40.017,-105.05,1564.0,20100218,20140630
720535,162,FORT MORGAN MUNICIPAL AIRPORT,US,CO,W,KFMM,40.333,-103.8,1393.2,20120726,20220428
720536,99999,GRANBY GRAND CO,US,CO,W,KGNB,40.09,-105.917,2500.3,20170703,20220427
720537,163,HOLYOKE AIRPORT,US,CO,W,KHEQ,40.567,-102.267,1137.2,20101129,20220428
720538,164,VANCE BRAND AIRPORT,US,CO,W,KLMO,40.167,-105.167,1541.1,20101202,20220428
720539,165,STEVENS FIELD AIRPORT,US,CO,W,KPSO,37.283,-107.05,2335.1,20091001,20220428
720541,53806,OXFORD UNIV,US,MS,S,KUOX,34.383,-89.55,137.8,20090101,20220428
720541,99999,UNIVERSITY OXFORD,US,MS,S,KUOX,34.383,-89.533,138.0,20080530,20080605
720542,166,LAGO VISTA RUSTY ALLEN AIRPOR,US,TX,S,KRYW,30.5,-97.967,375.2,20090101,20220428
720542,99999,LARGO VISTA / RUSTY ALLEN AIR,US,TX,S,KRYW,30.5,-97.967,375.0,20080825,20081231
720543,167,DE KALB COUNTY AIRPORT,US,IN,MW,KGWB,41.3,-85.067,268.2,20090101,20220428
720543,99999,AUBURN / DE KALB CO,US,IN,MW,KGWB,41.307,-85.064,268.2,20080612,20081231
720544,168,STERLING MUNICIPAL AIRPORT,US,CO,W,KSTK,40.617,-103.267,1231.1,20101129,20220428
720545,169,CHESTER AIRPORT,US,CT,NE,KSNC,41.384,-72.506,127.1,20090101,20220428
720545,99999,CHESTER AIRPORT,US,CT,NE,KSNC,41.384,-72.506,126.8,20080817,20081231
720546,99999,EUREKA,US,NV,W,,39.604,-116.005,1814.8,20120209,20130430
720549,171,CARSON AIRPORT,US,NV,W,KCXP,39.183,-119.733,1432.3,20100714,20220428
720551,99999,MINDEN TAHOE AIRPORT,US,NV,W,KMEV,39.0,-119.751,1440.5,20140523,20220427
720553,99999,PORT AUTH DOWNTN MANHATTAN WA,US,NY,NE,KJRB,40.701,-74.009,2.1,20160720,20220427
720558,3977,ELK CITY MUNICIPAL AP,US,OK,S,KELK,35.433,-99.4,610.2,20140530,20220429
720559,172,STAN STAMPER MUNICIPAL AIRPOR,US,OK,S,KHHW,34.033,-95.533,174.0,20120202,20220428
720561,467,WILLIAM R POUGE MUNICIPAL AIR,US,OK,S,KOWP,36.175,-96.152,272.2,20130822,20220427
720562,99999,RANGE OP 13 / YAKIMA TRAINING,US,WA,W,K1QW,46.8,-120.167,928.0,20080530,20170920
720565,99999,HEBER CITY MUNICIPAL AIRPORT,US,UT,W,K36U,40.482,-111.429,1718.2,20100412,20220427
720567,24180,BRIGHAM CITY AIRPORT,US,UT,W,KBMC,41.552,-112.062,1288.1,20140724,20220428
720569,99999,KANAB MUNI,US,UT,W,KKNB,37.011,-112.531,1483.8,20130813,20220427
720572,99999,BOLINDER FIELD TOOELE VALLEY,US,UT,W,KTVY,40.612,-112.351,1316.1,20150506,20220427
720575,173,INDIANAPOLIS EXECUTIVE AIRPOR,US,IN,MW,KTYQ,40.031,-86.251,281.0,20140101,20220428
720575,99999,INDIANAPOLIS EXECUTIVE,US,IN,MW,KTYQ,40.031,-86.251,281.0,20080721,20131231
720576,174,UNIVERSITY AIRPORT,US,CA,W,KEDU,38.533,-121.783,21.0,20090102,20220428
720576,99999,DAVIS,US,CA,W,KEDU,38.533,-121.783,21.0,20080721,20081106
720577,175,RUSK COUNTY AIRPORT,US,TX,S,KRFI,32.15,-94.85,135.0,20090109,20220428
720577,99999,HENDERSON/RUSK COUNTY AIRPORT,US,TX,S,KRFI,32.15,-94.85,134.7,20080721,20081230
720578,176,STEPHENS COUNTY AIRPORT,US,TX,S,KBKD,32.717,-98.892,391.1,20090101,20220424
720578,99999,STEPHENS CO,US,TX,S,KBKD,32.719,-98.891,391.4,20080721,20081231
720579,99999,LAJITAS INTL ARPT,US,TX,S,KT89,29.278,-103.687,802.0,20080825,20220427
720581,178,LINDEN AIRPORT,US,NJ,NE,KLDJ,40.617,-74.25,7.0,20170101,20220428
720581,99999,LINDEN,US,NJ,NE,KLDJ,40.617,-74.245,7.0,20080721,20161231
720582,99999,TODD FLD,US,MN,MW,,45.899,-94.874,406.3,20080721,20130430
720583,99999,LAKE ELMO,US,MN,MW,,44.997,-92.856,284.1,20080721,20130430
720584,181,ZAPATA COUNTY AIRPORT,US,TX,S,KAPY,26.967,-99.25,129.2,20090101,20220428
720584,99999,ZAPATA,US,TX,S,KAPY,26.967,-99.25,129.0,20080721,20081231
720585,99999,ELBOW LAKE MUNI,US,MN,MW,,45.986,-95.992,367.0,20080721,20130430
720586,183,PLATTEVILLE MUNICIPAL AIRPORT,US,WI,MW,KPVB,42.683,-90.45,312.1,20090101,20220428
720586,99999,PLATTEVILLE MUNI,US,WI,MW,KPVB,42.689,-90.444,312.1,20080825,20081231
720587,184,ABBEVILLE CHRIS CRUSTA MEMORI,US,LA,S,KIYA,29.976,-92.084,15.2,20090101,20220428
720587,99999,CHRIS CRUSTA MEMORIAL AIRPORT,US,LA,S,KIYA,29.976,-92.084,4.6,20080825,20081231
720588,99999,OXFORD,US,MS,S,,34.383,-89.533,136.0,20080825,20081231
720589,185,SHAWANO MUNICIPAL AIRPORT,US,WI,MW,KEZS,44.783,-88.55,248.1,20090201,20220428
720589,99999,SHAWANO,US,WI,MW,KEZS,44.783,-88.55,248.0,20080915,20080925
720592,186,H L SONNY CALLAHAN AIRPORT,US,AL,S,KCQF,30.46,-87.877,28.0,20090101,20220428
720592,99999,FAIRHOPE/SONNY CALLAHAN AIRPO,US,AL,S,KCQF,30.461,-87.877,27.7,20081022,20081231
720593,187,STARKE COUNTY AIRPORT,US,IN,MW,KOXI,41.333,-86.667,208.2,20090101,20220426
720593,99999,KNOX/STARKE CO,US,IN,MW,KOXI,41.333,-86.667,208.5,20081022,20081231
720594,188,HOUSTON DUNN HELISTOP,US,TX,S,KMCJ,29.717,-95.383,69.2,20090101,20220428
720594,99999,HOUSTON/DUNN HELISTOP,US,TX,S,KMCJ,29.717,-95.383,69.0,20081022,20081231
720596,189,NEWBERRY COUNTY AIRPORT,US,SC,S,KEOE,34.3,-81.633,173.1,20090105,20220428
720597,190,LAURENS COUNTY AIRPORT,US,SC,S,KLUX,34.5,-81.95,212.1,20090105,20220428
720598,191,BERKELEY COUNTY AIRPORT,US,SC,S,KMKS,33.183,-80.033,22.3,20090105,20220428
720599,192,CHESTER CATAWBA REGIONAL AIRP,US,SC,S,KDCM,34.783,-81.2,200.3,20090105,20220428
720601,193,AIKEN MUNICIPAL AIRPORT,US,SC,S,KAIK,33.65,-81.683,161.2,20090105,20220428
720602,194,BARNWELL REGIONAL AIRPORT,US,SC,S,KBNL,33.25,-81.383,75.3,20090105,20220428
720603,195,WOODWARD FIELD AIRPORT,US,SC,S,KCDN,34.283,-80.567,92.1,20090105,20220428
720604,196,WILLIAMSBURG REGIONAL AIRPORT,US,SC,S,KCKI,33.717,-79.85,20.1,20090105,20220428
720605,197,CHERAW MUNICIPAL LYNCH BELLIN,US,SC,S,KCQW,34.717,-79.95,73.2,20090105,20220428
720606,198,CHARLESTON EXECUTIVE AIRPORT,US,SC,S,KJZI,32.701,-80.003,5.2,20130101,20220428
720606,99999,CHARLESTON EXECUTIVE,US,SC,S,KJZI,32.701,-80.003,5.2,20090105,20121231
720607,199,LANCASTER COUNTY MC WHIRTER F,US,SC,S,KLKR,34.717,-80.85,148.1,20090105,20220428
720608,200,MARION COUNTY AIRPORT,US,SC,S,KMAO,34.181,-79.335,28.0,20090105,20220428
720609,201,LOWCOUNTRY REGIONAL AIRPORT,US,SC,S,KRBW,32.917,-80.633,31.1,20130101,20220428
720609,99999,WALTERBORO/LOWCOUNTRY RGNL,US,SC,S,KRBW,32.921,-80.641,29.9,20090105,20121231
720611,202,SUMTER AIRPORT,US,SC,S,KSMS,34.0,-80.367,55.2,20090105,20220428
720612,203,BEAUFORT COUNTY AIRPORT,US,SC,S,KARW,32.412,-80.634,38.1,20090120,20220428
720613,204,CONWAY HORRY COUNTY AIRPORT,US,SC,S,KHYW,33.828,-79.122,10.1,20090510,20220428
720614,205,LINCOLN REGIONAL AIRPORT KARL,US,CA,W,KLHM,38.909,-121.351,37.2,20090510,20220428
720615,206,COLUMBIA AIRPORT,US,CA,W,KO22,38.033,-120.417,646.2,20090120,20220428
720616,207,BRANSON AIRPORT,US,MO,MW,KBBG,36.533,-93.2,397.2,20090201,20220428
720617,208,HOUSTON EXECUTIVE AIRPORT,US,TX,S,KTME,29.8,-95.9,51.2,20090204,20220429
720619,99999,FRANCIS E WARREN AFB HELIPORT,US,WY,W,KFEW,41.133,-104.867,1877.6,20090423,20220427
720622,99999,BOWIE MUNI,US,TX,S,,33.602,-97.776,335.6,20090320,20130430
720623,99999,ELIZABETHTON MUNI,US,TN,S,,36.371,-82.173,485.5,20090325,20130430
720624,211,MADISON MUNICIPAL AIRPORT,US,SD,MW,KMDS,44.016,-97.086,523.0,20090312,20220428
720625,212,BLACKWELL TONKAWA MUNICIPAL A,US,OK,S,KBKN,36.75,-97.35,314.3,20090312,20220429
720626,213,PAMPA MESA VISTA AIRPORT,US,TX,S,KBPC,35.883,-101.033,845.2,20090326,20220429
720626,99999,PAMPA M VISTA,US,TX,S,KBPC,35.883,-101.033,845.0,20090313,20090325
720627,214,STIGLER REGIONAL AIRPORT,US,OK,S,KGZL,35.283,-95.1,183.2,20090312,20220428
720628,215,CLARENCE E PAGE MUNICIPAL AIR,US,OK,S,KRCE,35.483,-97.817,413.0,20090326,20220428
720628,99999,OKLAHOMA CITY/PAGE,US,OK,S,KRCE,35.483,-97.817,413.0,20090312,20090325
720629,216,JACK BARSTOW AIRPORT,US,MI,MW,KIKW,43.663,-84.261,194.2,20090406,20220428
720631,217,MARLBORO COUNTY JETPORT H E A,US,SC,S,KBBP,34.617,-79.733,45.1,20090420,20220428
720631,99999,MARLBORO CO JETPORT H E AVENT,US,SC,S,KBBP,34.622,-79.734,44.8,20090403,20090419
720632,218,SUMMERVILLE AIRPORT,US,SC,S,KDYB,33.063,-80.279,17.1,20090404,20220428
720633,219,HARTSVILLE REGIONAL AIRPORT,US,SC,S,KHVS,34.4,-80.117,111.3,20090403,20220428
720634,220,FAIRFIELD COUNTY AIRPORT,US,SC,S,KFDW,34.315,-81.109,176.2,20090421,20220428
720635,221,H A CLARK MEMORIAL FIELD AIRP,US,AZ,W,KCMR,35.3,-112.2,2035.2,20090508,20220428
720636,222,CLINTON MEMORIAL AIRPORT,US,MO,MW,KGLY,38.35,-93.683,251.2,20090511,20220428
720636,99999,CLINTON MEM,US,MO,MW,KGLY,38.357,-93.684,250.5,20090508,20090510
720637,223,HOUSTON SOUTHWEST AIRPORT,US,TX,S,KAXH,29.5,-95.477,21.0,20090601,20220429
720638,224,BEND MUNICIPAL AIRPORT,US,OR,W,KBDN,44.095,-121.2,1055.2,20090524,20220428
720639,225,HORSESHOE BAY RESORT AIRPORT,US,TX,S,KDZB,30.533,-98.367,333.2,20090605,20220428
720641,99999,SCHRIEVER AFB,US,CO,W,KSHM,38.8,-104.517,1899.5,20121018,20180217
720642,99999,CHEYENNE MTN AS,US,CO,W,KCWN,38.75,-104.85,2114.0,20121120,20220427
720643,54940,FOREST CITY MUNICIPAL AIRPORT,US,IA,MW,KFXY,43.235,-93.624,374.6,20090714,20220429
720643,99999,FOREST CITY MUNI,US,IA,MW,KFXY,43.233,-93.783,375.0,20090702,20090713
720644,226,BUCKEYE MUNICIPAL AIRPORT,US,AZ,W,KBXK,33.417,-112.683,311.2,20130101,20220428
720644,99999,BUCKEYE MUNI,US,AZ,W,KBXK,33.42,-112.686,311.2,20090708,20121231
720645,227,PLACERVILLE AIRPORT,US,CA,W,KPVF,38.717,-120.75,787.3,20090711,20220428
720646,228,HALF MOON BAY AIRPORT,US,CA,W,KHAF,37.513,-122.501,20.1,20090717,20220428
720647,229,LAMPASAS AIRPORT,US,TX,S,KLZZ,31.106,-98.196,370.0,20090719,20220428
720648,230,AUSTIN EXECUTIVE AIRPORT,US,TX,S,KEDC,30.395,-97.567,188.1,20090722,20220429
720649,231,HALIFAX NORTHAMPTON REGIONAL,US,NC,S,KIXA,36.33,-77.635,44.2,20090722,20220428
720651,232,UNION COUNTY AIRPORT,US,OH,MW,KMRT,40.225,-83.352,311.2,20090721,20220428
720652,433,BRIDGEPORT SONORA JUNCTION,US,CA,W,KBAN,38.356,-119.519,2057.1,20090827,20220428
720652,99999,USMC MTN WARFARE TRAINING CEN,US,CA,W,KBAN,38.35,-119.517,2067.2,20090813,20090826
720654,99999,CORNING MUNI,US,AR,S,,36.404,-90.648,89.3,20090701,20130430
720655,235,CRYSTAL RIVER AIRPORT,US,FL,S,KCGC,28.867,-82.567,3.1,20090812,20220428
720656,99999,MIDDLETON MUNI MOREY FLD,US,WI,MW,,43.114,-89.532,282.9,20091104,20130430
720657,99999,HINCKLEY/FIELD OF DREAMS AIRP,US,MN,MW,,46.023,-92.895,311.0,20091111,20130430
720658,99999,SAUK CENTRE MUNI,US,MN,MW,,45.707,-94.933,379.2,20091111,20130430
720659,239,OZONA MUNICIPAL AIRPORT,US,TX,S,KOZA,30.735,-101.203,726.0,20091118,20220428
720661,99999,IONIA CO,US,MI,MW,,42.938,-85.061,249.3,20091203,20130430
720663,99999,VIROQUA MUNI,US,WI,MW,,43.579,-90.913,393.8,20091216,20130430
720664,242,INDEPENDENCE OIL PLATFORM,US,LA,S,KIPN,28.083,-87.983,224.0,20091229,20160616
720664,99999,OIL PLATFORM/INDEPENDENCE,US,LA,S,KIPN,28.083,-87.983,223.7,20091217,20091228
720665,243,MAGNOLIA OIL PLATFORM,US,LA,S,KGBK,27.2,-92.2,224.0,20091229,20220429
720665,99999,OIL PLATFORM/MAGNOLIA,US,LA,S,KGBK,27.2,-92.2,223.7,20091217,20091228
720666,244,SHIP SHOAL OIL PLATFORM,US,LA,S,KSPR,28.6,-91.2,224.0,20091229,20200222
720666,99999,OIL PLATFORM/SHIP SHOAL,US,LA,S,KSPR,28.6,-91.2,223.7,20091217,20091228
720667,99999,OIL PLATFORM/INNOVATOR,US,MS,S,KMYT,28.217,-89.617,223.7,20091217,20140203
720668,246,EAST BREAKS OIL PLATFORM,US,TX,S,KEMK,27.817,-94.317,224.0,20091229,20220417
720668,99999,OIL PLATFORM/EAST BREAKS,US,TX,S,KEMK,27.817,-94.317,223.7,20091217,20091228
720669,247,GUNNISON OIL PLATFORM,US,TX,S,KGUL,27.3,-93.533,224.0,20091229,20220428
720669,99999,OIL PLATFORM/GUNNISON,US,TX,S,KGUL,27.3,-93.533,223.7,20091217,20091228
720671,248,JESUP WAYNE COUNTY AIRPORT,US,GA,S,KJES,31.554,-81.883,33.2,20100112,20220428
720671,99999,JESUP WAYNE CO,US,GA,S,KJES,31.554,-81.883,32.9,20100111,20100111
720672,485,FLAGLER COUNTY EXECUTIVE AIRP,US,FL,S,KFIN,29.467,-81.206,10.1,20091103,20220429
720674,249,WEST GEORGIA REGIONAL AIRPORT,US,GA,S,KCTJ,33.633,-85.15,354.2,20100129,20220428
720675,99999,INDIAN SPRINGS RANGE 63,US,NV,W,KL63,36.53,-115.57,972.0,20050103,20111230
720681,99999,CALAVERAS CO MAURY RASMUSSEN,US,CA,W,KCPU,38.146,-120.648,403.9,20160526,20220427
720684,99999,PHIFER AFLD,US,WY,W,KEAN,42.05,-104.933,1455.1,20160331,20220427
720687,99999,HEMET RYAN,US,CA,W,KHMT,33.733,-117.017,460.9,20191121,20220427
720699,3724,CARROLL CO RGNL/JJACK B POAGE,US,MD,S,KDMW,39.608,-77.008,240.5,20110101,20220428
720699,99999,CARROLL CO RGNL JAC,US,MD,S,KDMW,39.608,-77.008,240.0,20100218,20101231
720701,54942,OSCEOLA MUNICIPAL AIRPORT,US,IA,MW,KI75,41.052,-93.689,339.9,20100304,20220428
720701,99999,OSCEOLA MUNI,US,IA,MW,KI75,41.05,-93.683,338.0,20100218,20100303
720705,99999,JAMES A RHODES,US,OH,MW,KI43,38.981,-82.578,221.3,20190502,20220427
720708,53849,RANGE B,US,MS,S,KNJW,32.8,-88.833,164.6,20200713,20220428
720709,99999,PUTNAM COUNTY AIRPORT,US,OH,MW,KOWX,41.036,-83.982,232.6,20160909,20220427
720712,250,HENRY TIFT MYERS AIRPORT,US,GA,S,KTMA,31.429,-83.489,108.2,20100804,20220428
720713,251,DARKE COUNTY AIRPORT,US,OH,MW,KVES,40.204,-84.532,307.2,20100308,20220428
720714,252,PAULDING NORTHWEST ATLANTA AI,US,GA,S,KPUJ,33.912,-84.941,393.2,20100425,20220428
720716,99999,LURAY CAVERNS,US,VA,S,KW45,38.667,-78.501,274.9,20111001,20130430
720717,442,WEST DELTA 27A,US,MS,S,KDLP,29.117,-89.55,36.3,20100503,20220118
720717,99999,WEST DELTA OIL PLATFORM,US,MS,S,KDLP,29.117,-89.55,224.0,20100430,20100502
720718,253,MISSISSIPPI CANYON 311 A,US,LA,S,KMDJ,28.643,-89.794,224.0,20100503,20210830
720718,99999,MISSISSIPPI CANYON OIL PLATFO,US,LA,S,KMDJ,28.65,-89.8,224.0,20100430,20100502
720719,254,EAST CAMERON 278 OIL PLATFORM,US,LA,S,KEHC,28.433,-92.883,224.0,20100503,20180920
720719,99999,EAST CAMERON OIL PLATFORM,US,LA,S,KEHC,28.433,-92.883,224.0,20100430,20100502
720721,255,SABINE OIL PLATFORM,US,LA,S,KVBS,29.483,-93.633,224.0,20100503,20190301
720721,99999,SABINE OIL PLATFORM,US,LA,S,KVBS,29.483,-93.633,224.0,20100430,20100502
720722,256,SOUTH MARSH 268 OIL PLATFORM,US,LA,S,KSCF,29.117,-91.867,224.0,20100503,20210930
720722,99999,S MARSH OIL PLATFORM,US,LA,S,KSCF,29.117,-91.867,224.0,20100430,20100502
720723,257,VERMILLION 26 OIL PLATFORM,US,LA,S,KVNP,29.467,-92.367,224.0,20100503,20130425
720723,99999,VERMILLION OIL PLATFORM,US,LA,S,KVNP,29.467,-92.367,224.0,20100430,20100502
720724,99999,BELEN RGNL ARPT,US,NM,W,KBRG,34.646,-106.836,1584.8,20100503,20220427
720725,434,BRAZOS 133B,US,TX,S,KBBF,28.058,-95.872,0.0,20100507,20200726
720725,99999,BRAZOS 133,US,TX,S,KBBF,27.835,-96.011,0.0,20100504,20100506
720726,259,GALVESTON 424 OIL PLATFORM,US,TX,S,KGVX,28.577,-94.977,0.3,20100507,20160304
720726,99999,GALVESTON 424,US,TX,S,KGVX,28.577,-94.977,0.0,20100504,20100506
720727,260,HIGH ISLAND 376,US,TX,S,KHQI,27.962,-93.671,0.3,20100507,20200803
720727,99999,HIGH ISLAND 376,US,TX,S,KHQI,27.962,-93.671,0.0,20100504,20100506
720729,435,BRAZOS 451 OILP,US,TX,S,KBQX,28.5,-95.716,34.1,20100518,20220428
720729,99999,BRAZOS 451,US,TX,S,KBQX,28.5,-95.717,0.0,20100513,20100517
720731,261,MUSTANG ISLAND 31,US,TX,S,KMIU,27.283,-96.733,0.3,20100518,20131023
720731,99999,MUSTANG ISLAND 31,US,TX,S,KMIU,27.283,-96.733,0.0,20100513,20100517
720732,99999,MUSTANG ISLAND A85A,US,TX,S,KMZG,27.733,-96.183,9.0,20100513,20200416
720733,99999,BOERNE STAGE FLD,US,TX,S,,29.724,-98.695,422.1,20100511,20130430
720734,264,NAMPA MUNICIPAL AIRPORT,US,ID,W,KMAN,43.581,-116.523,773.3,20100514,20220428
720735,73805,NORTHWEST FLORIDA BEACHES INT,US,FL,S,KECP,30.349,-85.788,17.1,20110301,20220428
720735,99999,NW PANAMA CITY INTL,US,FL,S,KECP,30.358,-85.799,21.0,20100523,20110228
720736,265,FULTON COUNTY AIRPORT,US,IN,MW,KRCR,41.066,-86.182,241.1,20100607,20220429
720737,266,CARRINGTON MUNICIPAL AIRPORT,US,ND,MW,K46D,47.451,-99.151,490.1,20100610,20220428
720738,267,THOMASVILLE REGIONAL AIRPORT,US,GA,S,KTVI,30.902,-83.881,80.2,20100610,20220428
720739,268,MINDEN AIRPORT,US,LA,S,KMNE,32.646,-93.298,85.0,20110501,20220428
720741,269,BOULDER MUNICIPAL AIRPORT,US,NV,W,KBVU,35.947,-114.861,671.2,20100624,20220428
720742,270,FAITH RANCH AIRPORT,US,TX,S,KFTN,28.209,-100.019,236.2,20100630,20220428
720742,99999,FAITH RANCH AIRPORT,US,TX,S,KFTN,28.209,-100.019,235.6,20100618,20100629
720743,418,SOUTH PADRE ISLAND HELIPORT,US,TX,S,KSPL,26.067,-97.15,4.3,20100630,20170103
720743,99999,S PADRE ISLAND HELIPORT,US,TX,S,KSPL,26.071,-97.157,3.0,20100618,20100629
720744,271,PICKENS COUNTY AIRPORT,US,SC,S,KLQK,34.817,-82.7,309.1,20100721,20220428
720744,99999,PICKENS CO AIRPORT,US,SC,S,KLQK,34.81,-82.703,308.8,20100719,20100720
720747,99999,ELK MOUNTAIN,US,WY,W,KEHY,41.733,-106.467,2225.0,20100914,20220427
720749,24255,WHIDBEY ISLAND NAS,US,WA,W,KNUW,48.35,-122.667,14.3,20050101,20220428
720753,99999,KEN JERNSTEDT,US,OR,W,,45.672,-121.536,192.3,20060112,20070516
720759,99999,RAVALLI COUNTY AIRPORT,US,MT,W,KHRF,46.255,-114.125,1111.0,20190410,20220427
720768,274,LEE COUNTY AIRPORT,US,VA,S,K0VG,36.654,-83.218,430.1,20100921,20220428
720769,275,GEORGE M BRYAN AIRPORT,US,MS,S,KSTF,33.433,-88.849,101.2,20130101,20220428
720769,99999,GEORGE M BRYAN,US,MS,S,KSTF,33.433,-88.849,101.2,20100923,20121231
720771,276,COLEMAN MUNICIPAL AIRPORT,US,TX,S,KCOM,31.841,-99.404,517.3,20100930,20220425
720772,99999,MORIARTY AIRPORT,US,NM,W,,34.986,-106.009,1889.5,20101013,20130430
720773,99999,COURTLAND AIRPORT,US,AL,S,,34.659,-87.349,179.2,20101018,20130430
720775,99999,ELLINGTON,US,TN,S,KLUG,35.507,-86.804,218.5,20180403,20220427
720776,99999,HESLER NOBLE FLD,US,MS,S,KLUL,31.673,-89.172,72.5,20121118,20220427
720777,99999,LAWRENCEVILLE BRUNSWICK MUNI,US,VA,S,KLVL,36.773,-77.794,100.3,20140625,20220427
720779,461,MEXIA LIMESTONE COUNTY AIRPOR,US,TX,S,KLXY,31.641,-96.514,166.1,20130829,20220428
720781,99999,LYONS RICE CO MUNI,US,KS,MW,KLYO,38.343,-98.227,515.4,20180719,20220427
720787,278,JOHN BELL WILLIAMS AIRPORT,US,MS,S,KJVW,32.304,-90.411,75.3,20110402,20220429
720806,99999,PANOLA CO SHARPE FLD,US,TX,S,K4F2,32.176,-94.299,75.6,20190920,20220427
720815,99999,PUTNAM CO,US,IN,MW,K4I7,39.63,-86.814,256.6,20140313,20170222
720835,99999,MADELINE ISLAND,US,WI,MW,K4R5,46.789,-90.759,197.8,20161111,20220427
720837,99999,JOSEPH STATE,US,OR,W,KJSY,45.36,-117.254,1256.1,20200805,20220427
720839,279,RENO STEAD AIRPORT,US,NV,W,KRTS,39.667,-119.876,1540.2,20110921,20220428
720844,99999,SPANISH PEAKS,US,CO,W,K4V1,37.697,-104.785,1844.0,20210302,20220427
720852,280,MEADOW LAKE AIRPORT,US,CO,W,KFLY,38.946,-104.57,2095.2,20101201,20220428
720853,281,ROLLA MUNICIPAL AIRPORT,US,ND,MW,K06D,48.884,-99.621,555.0,20101118,20220428
720854,282,BEACH AIRPORT,US,ND,MW,K20U,46.925,-103.982,840.0,20101118,20220428
720855,283,CAVALIER MUNICIPAL AIRPORT,US,ND,MW,K2C8,48.784,-97.632,272.2,20101118,20220428
720856,284,SCOTTSBORO MUNICIPAL AIRPORT,US,AL,S,K4A6,34.689,-86.006,198.1,20101130,20220428
720858,285,CANDO MUNICIPAL AIRPORT,US,ND,MW,K9D7,48.48,-99.236,450.2,20101118,20220428
720859,286,BLACK RIVER FALLS AREA AIRPOR,US,WI,MW,KBCK,44.251,-90.855,255.1,20101118,20220428
720861,287,CROSBY MUNICIPAL AIRPORT,US,ND,MW,KD50,48.929,-103.297,594.1,20101118,20220428
720862,99999,ROBERTSON FLD,US,ND,MW,,48.753,-98.393,490.1,20101118,20130430
720863,289,TIOGA MUNICIPAL AIRPORT,US,ND,MW,KD60,48.381,-102.898,691.0,20101118,20220428
720864,290,TARBORO EDGECOMBE AIRPORT,US,NC,S,KETC,35.937,-77.547,16.2,20101122,20220428
720865,291,HUTSON FIELD AIRPORT,US,ND,MW,KGAF,48.405,-97.371,251.2,20101118,20220428
720866,292,MERCER COUNTY REGIONAL AIRPOR,US,ND,MW,KHZE,47.29,-101.581,553.2,20101118,20220428
720867,293,RUGBY MUNICIPAL AIRPORT,US,ND,MW,KRUG,48.39,-100.024,472.1,20101210,20220428
720867,99999,RUGBY MUNI,US,ND,MW,KRUG,48.39,-100.024,471.8,20101118,20101209
720868,294,WATFORD CITY MUNICIPAL AIRPOR,US,ND,MW,KS25,47.796,-103.254,643.1,20101210,20220428
720868,99999,WATFORD CITY MUNI,US,ND,MW,KS25,47.796,-103.254,642.8,20101118,20101209
720869,295,JESSE VIERTEL MEMORIAL AIRPOR,US,MO,MW,KVER,38.947,-92.683,218.2,20101203,20220428
720871,296,MANDAN MUNICIPAL AIRPORT,US,ND,MW,KY19,46.768,-100.894,593.1,20101118,20220428
720887,297,MANITOWISH WATERS AIRPORT,US,WI,MW,KD25,46.117,-89.883,491.0,20111215,20220428
720895,99999,GLEN ULLIN REGIONAL,US,ND,MW,KD57,46.813,-101.86,636.7,20131016,20220427
720897,99999,MONROE WALTON CO,US,GA,S,KD73,33.782,-83.693,264.3,20170817,20220427
720902,298,DUPONT LAPEER AIRPORT,US,MI,MW,KD95,43.067,-83.267,254.2,20130101,20220428
720902,99999,DUPONT LAPEER,US,MI,MW,KD95,43.067,-83.272,254.2,20120124,20121231
720903,441,DAVIESS COUNTY AIRPORT,US,IN,MW,KDCY,38.7,-87.13,143.3,20130826,20220428
720904,299,DELAND MUNICIPAL AIRPORT SIDN,US,FL,S,KDED,29.067,-81.283,24.1,20120209,20220429
720907,99999,CAMPBELL CO,US,TN,S,KJAU,36.335,-84.162,359.7,20150608,20220331
720909,300,STANLEY MUNICIPAL AIRPORT,US,ND,MW,K08D,48.301,-102.406,684.3,20101207,20220428
720911,301,BARNES COUNTY MUNICIPAL AIRPO,US,ND,MW,KBAC,46.942,-98.018,427.0,20101215,20220428
720912,302,VIOSCA KNOLL 768 OIL PLATFORM,US,AL,S,KVOA,29.233,-87.783,53.0,20110112,20220428
720912,99999,VIOSCA KNOLL 768,US,AL,S,KVOA,29.233,-87.783,53.0,20110105,20110111
720913,303,SALSA,US,LA,S,KGHB,27.833,-91.983,30.2,20110113,20220428
720913,99999,GARDEN BANKS 172,US,LA,S,KGHB,27.833,-91.983,30.0,20101103,20110112
720914,304,EUGENE ISLAND OIL PLATFORM,US,LA,S,KEIR,28.633,-91.483,28.0,20110113,20210911
720914,99999,EUGENE I 2150ILP,US,LA,S,KEIR,28.633,-91.483,28.0,20101101,20110112
720915,305,EAST CAMERON 47 OIL PLATFORM,US,LA,S,KCMB,29.433,-92.983,29.3,20110113,20120803
720915,99999,E CAMERON 47JP,US,LA,S,KCMB,29.433,-92.983,29.0,20101101,20110112
720916,453,GREEN CANYON 338,US,LA,S,KGRY,27.63,-90.45,58.2,20110113,20220428
720916,99999,GREEN CANYON 338,US,LA,S,KGRY,27.633,-90.45,58.0,20101105,20110112
720917,306,HIGH ISLAND 179 OIL PLATFORM,US,TX,S,KXIH,29.183,-94.517,75.3,20110113,20200328
720917,99999,HIGH ISLAND 179A,US,LA,S,KXIH,29.183,-94.517,75.0,20101122,20110112
720918,307,MAIN PASS 140B,US,LA,S,KMIS,29.296,-88.842,25.0,20110113,20220428
720918,99999,MISSION,US,SD,MW,KMIS,43.033,-100.617,789.0,20110105,20110112
720919,308,NORTH PADRE ISLAND,US,TX,S,KOPM,26.833,-96.933,25.3,20110113,20141031
720919,99999,N PADRE 975,US,TX,S,KOPM,26.833,-96.933,25.0,20101101,20110112
720921,309,WEST CAMERON 368 A OIL PLATFO,US,TX,S,KCRH,28.917,-93.3,34.1,20110113,20151014
720921,99999,W CAMERON 368A,US,TX,S,KCRH,28.917,-93.3,34.0,20101101,20110112
720922,99999,ST GEORGE MUNI,US,UT,W,KDXZ,37.036,-113.51,879.0,20110113,20111214
720923,310,BOUNDARY COUNTY AIRPORT,US,ID,W,K65S,48.726,-116.295,711.1,20110118,20220427
720924,311,ROSCOE TURNER AIRPORT,US,MS,S,KCRX,34.915,-88.604,130.2,20110125,20220428
720924,99999,ROSCOE TURNER AIRPORT,US,MS,S,KCRX,34.915,-88.604,129.5,20110118,20110124
720925,312,ATLANTIS OIL PLATFORM,US,LA,S,KATP,27.2,-90.033,50.3,20110310,20220416
720925,99999,ATLANTIS,US,LA,S,KATP,27.2,-90.033,50.0,20110104,20110309
720926,313,BEAUMONT MUNICIPAL AIRPORT,US,TX,S,KBMT,30.071,-94.216,10.1,20110310,20220428
720927,314,FLETCHER FIELD AIRPORT,US,MS,S,KCKM,34.3,-90.512,53.0,20110311,20220428
720928,315,DELAWARE MUNICIPAL JIM MOORE,US,OH,MW,KDLZ,40.28,-83.115,288.0,20110315,20220428
720929,316,CUMERLAND MUNICIPAL AIRPORT,US,WI,MW,KUBE,45.506,-91.981,378.3,20110309,20220428
720932,317,BROOKHAVEN LINCOLN COUNTY AIR,US,MS,S,K1R7,31.606,-90.409,149.1,20110402,20220428
720933,318,LINTON MUNICIPAL AIRPORT,US,ND,MW,K7L2,46.218,-100.245,542.2,20110513,20220428
720934,99999,WRAY MUNI,US,CO,W,,40.1,-102.241,1120.7,20110512,20130430
720935,99999,PETALUMA MUNI,US,CA,W,,38.258,-122.606,26.5,20110517,20130430
720936,99999,ALWOOD NDB,US,NC,S,KAQE,35.707,-77.372,9.0,20110618,20110618
720939,99999,OAKES MUNI,US,ND,MW,,46.173,-98.08,406.9,20110513,20130430
720941,99999,HARVEY MUNI,US,ND,MW,,47.791,-99.932,489.2,20110516,20130430
720942,323,WAHOO MUNICIPAL AIRPORT,US,NE,MW,KAHQ,41.233,-96.6,373.1,20110517,20220428
720943,431,HARRISON COUNTY AIRPORT,US,TX,S,KASL,32.521,-94.308,108.8,20110518,20220428
720944,324,BELLEFONTAINE REGIONAL AIRPOR,US,OH,MW,KEDJ,40.367,-83.817,342.3,20110512,20220428
720945,99999,QUINCY MUNI ARPT,US,FL,S,,30.6,-84.55,20.9,20110521,20130430
720946,326,FERNANDINA BEACH MUNICIPAL AI,US,FL,S,KFHB,30.617,-81.467,5.2,20110512,20220428
720947,99999,COOPERSTOWN MUNI,US,ND,MW,,47.423,-98.106,434.0,20110601,20130430
720948,328,JIMMY CARTER REGIONAL AIRPORT,US,GA,S,KACJ,32.11,-84.189,142.7,20110711,20220428
720949,329,CAMDENTON MEMORIAL AIRPORT,US,MO,MW,KH21,37.974,-92.691,324.0,20110630,20220427
720951,330,EAST GEORGIA REGIONAL AIRPORT,US,GA,S,KSBO,32.609,-82.37,100.3,20110704,20220428
720952,99999,GRAY BUTTE FLD,US,CA,W,KGXA,34.564,-117.675,920.5,20110825,20211224
720953,331,MAIN PASS 289 C OIL PLATFORM,US,LA,S,KVKY,29.248,-88.441,115.2,20110824,20220225
720953,99999,MAIN PASS 289C OIL PLATFORM,US,LA,S,KVKY,29.248,-88.441,115.0,20110512,20110823
720954,456,ALAMINOS CANYON,US,TX,S,KHHV,26.933,-94.683,25.3,20110824,20220428
720957,333,PORT FORCHON HELIPORT,US,LA,S,KXPY,29.117,-90.2,30.2,20111001,20201006
720958,99999,TUCKER GUTHRIE MEM,US,KY,S,,36.859,-83.358,472.7,20111021,20130430
720959,99999,BUTLER MUNI,US,GA,S,,32.568,-84.251,203.3,20111021,20121031
720961,336,LOGANSPORT CASS COUNTY AIRPOR,US,IN,MW,KGGP,40.711,-86.375,225.3,20111028,20220429
720962,337,HEART OF GEORGIA REGIONAL AIR,US,GA,S,KEZM,32.214,-83.128,93.3,20111102,20220429
720962,99999,HEART OF GEORGIA RGNL,US,GA,S,KEZM,32.214,-83.128,92.7,20111021,20111101
720963,99999,MCGREGOR RANGE BASE CAMP,US,NM,W,KM63,32.079,-106.153,1246.0,20100429,20190106
720964,338,TYNDALL DRONE RUNWAY,US,FL,S,KTDR,30.033,-85.533,5.2,20120125,20220428
720965,13910,DYESS AIR FORCE BASE,US,TX,S,KDYS,32.433,-99.85,545.0,20050103,20220428
720966,339,GRIFFIN SPALDING COUNTY AIRPO,US,GA,S,K6A2,33.227,-84.275,292.3,20111118,20220428
720967,457,FALSE RIVER REGIONAL AIRPORT,US,LA,S,KHZR,30.718,-91.479,12.2,20111221,20220428
720968,340,SILER CITY MUNICIPAL AIRPORT,US,NC,S,K5W8,35.704,-79.504,187.2,20111215,20220427
720969,341,TEN SLEEP,US,WY,W,KJPD,44.15,-107.167,2741.1,20120130,20121213
720969,99999,TEN SLEEP,US,WY,W,KJPD,44.15,-107.167,2741.0,20111201,20120129
720971,342,SOUTH PASS,US,WY,W,KFWZ,42.517,-108.783,2588.1,20120130,20210725
720971,99999,SOUTH PASS,US,WY,W,KFWZ,42.517,-108.783,2588.0,20111201,20120129
720972,99999,ST MARY HOSPITAL HELIPORT,US,MN,MW,,44.017,-92.483,355.0,20111201,20220427
720974,344,WINCHESTER MUNICIPAL AIRPORT,US,TN,S,KBGF,35.178,-86.066,298.1,20120209,20220428
720975,99999,HAGLER AAF / CAMP SHELBY MISS,US,MS,S,KSLJ,31.174,-89.191,85.3,20110512,20200908
720976,345,LORDSBURG MUNICIPAL AIRPORT,US,NM,W,KLSB,32.333,-108.691,1304.2,20120215,20180226
720977,99999,ALPHA (BURNS),US,WY,W,,41.333,-104.267,1667.3,20130226,20220427
720978,99999,BRAVO (PINE BLUFFS),US,NE,MW,,41.517,-104.0,1607.2,20130226,20220427
720979,99999,CHARLIE (GERING),US,NE,MW,,41.583,-103.667,1371.0,20130226,20220427
720981,99999,DELTA (KIMBALL),US,NE,MW,,41.367,-103.8,1546.0,20130731,20220403
720982,99999,ECHO (PINE BLUFFS),US,NE,MW,,41.117,-103.983,1609.3,20131218,20220314
720983,99999,FOXTROT (DIX),US,NE,MW,,41.367,-103.483,1453.0,20141215,20210601
720984,99999,GOLF (SIDNEY),US,NE,MW,,41.217,-103.1,1333.5,20140514,20220427
720985,99999,HOTEL (GURLEY),US,NE,MW,,41.317,-102.833,1262.8,20130816,20220427
720986,99999,INDIA (SIDNEY),US,NE,MW,,41.05,-102.867,1293.0,20130828,20220427
720987,99999,JULIET (PEETZ),US,CO,W,K1JW,40.967,-103.2,1380.1,20130829,20220427
720988,99999,KILO (DIX),US,NE,MW,K1KW,41.133,-103.483,1439.3,20141215,20220303
720989,99999,LIMA (GROVER),US,CO,W,K1LW,40.917,-103.7,1518.8,20141215,20220303
720991,99999,MIKE (HAXTUN),US,CO,W,K1MW,40.7,-103.483,1336.2,20120702,20220427
720992,99999,NOVEMBER (GROVER),US,CO,W,K1NW,40.633,-103.833,1459.1,20141215,20220427
720993,99999,OSCAR (GROVER),US,CO,W,K1OW,40.883,-104.0,1649.0,20130226,20211129
720994,99999,ALPHA (RAYNESFORD),US,MT,W,K1AM,47.283,-110.8,1219.2,20131025,20220427
720995,99999,BRAVO (GEYSER),US,MT,W,K1BM,47.283,-110.367,1234.4,20120920,20210404
720996,99999,CHARLIE (STANFORD),US,MT,W,K1CM,47.1,-110.167,1336.6,20120601,20220427
720997,99999,DELTA (DENTON),US,MT,W,K1DM,47.383,-109.817,1093.3,20131025,20220427
720998,99999,ECHO (WINIFRED),US,MT,W,K1EM,47.45,-109.417,1116.5,20120717,20220427
720999,99999,FOXTROT (AUGUSTA),US,MT,W,K1FM,47.6,-112.317,1343.3,20120614,20220427
721001,99999,GOLF (SIMMS),US,MT,W,K1GM,47.333,-112.1,1310.6,20131025,20220427
721002,99999,HOTEL (FAIRFIELD),US,MT,W,K1HM,47.7,-111.95,1178.7,20130625,20220427
721003,99999,INDIA (ULM),US,MT,W,K1IM,47.317,-111.467,1108.0,20120920,20220427
721004,99999,JULIE (POWER),US,MT,W,K1JM,47.75,-111.55,1152.1,20120504,20220427
721005,99999,KILO (HARLOWTOWN),US,MT,W,K1KM,46.45,-109.8,1329.8,20120921,20220427
721006,99999,LIMA (JUDITH GAP),US,MT,W,K1LM,46.7,-109.733,1414.3,20120607,20220419
721007,99999,MIKE (MOORE),US,MT,W,K1MM,47.017,-109.633,1256.1,20120614,20220405
721008,99999,NOVEMBER (GRASS RANGE),US,MT,W,K1NM,47.067,-109.033,1161.3,20120619,20211213
721009,99999,OSCAR (ROY),US,MT,W,K1OM,47.333,-108.933,1086.0,20131025,20220427
721011,99999,ALPHA (BALFOUR),US,ND,MW,,47.967,-100.581,482.8,20141125,20220427
721012,99999,BRAVO (VELVA),US,ND,MW,,47.909,-100.927,588.6,20121030,20220204
721013,99999,CHARLIE (RUSO),US,ND,MW,,47.714,-101.01,598.6,20120926,20220427
721014,99999,DELTA (MAX),US,ND,MW,,47.795,-101.299,631.6,20121031,20220427
721015,99999,ECHO (RYDER),US,ND,MW,,47.751,-101.674,640.7,20121101,20210817
721016,99999,FOXTROT (RYDER 2),US,ND,MW,,47.896,-101.674,619.4,20120821,20220427
721017,99999,GOLF (PLAZA),US,ND,MW,,48.12,-101.96,643.7,20121024,20220427
721018,99999,HOTEL (PARSHALL),US,ND,MW,,47.974,-102.223,578.2,20120821,20220427
721019,99999,INDIA (PALERMO),US,ND,MW,,48.345,-102.304,678.2,20120823,20220427
721021,99999,JULIET (DONNYBROOK),US,ND,MW,,48.412,-101.892,670.3,20121002,20220427
721022,99999,KILO (DONNYBROOK 2),US,ND,MW,,48.551,-102.12,693.4,20120927,20220427
721023,99999,LIMA (BOWBELLS),US,ND,MW,,48.789,-102.269,601.1,20121023,20220427
721024,99999,MIKE (KENMARE),US,ND,MW,,48.673,-101.882,569.4,20120925,20220427
721025,99999,NOVEMBER (MOHALL),US,ND,MW,,48.76,-101.592,516.0,20121023,20220427
721026,99999,OSCAR (ANTLER),US,ND,MW,,48.825,-101.283,466.3,20120926,20220427
721027,99999,TRINITY CENTER,US,CA,W,,40.983,-122.694,728.5,20120302,20130430
721028,99999,MIDDLEBURY STATE AIRPORT,US,VT,NE,,43.985,-73.095,149.4,20120227,20220427
721029,347,LA PORTE MUNICIPAL AIRPORT,US,IN,MW,KPPO,41.572,-86.735,247.2,20120402,20220429
721031,348,TULLAHOMA REGIONAL AIRPORT WI,US,TN,S,KTHA,35.38,-86.246,330.1,20120408,20220428
721032,99999,ANDREWS CO,US,TX,S,,32.331,-102.53,967.4,20120417,20130430
721033,350,FITZGERALD MUNICIPAL AIRPORT,US,GA,S,KFZG,31.684,-83.27,111.3,20120620,20220428
721034,351,CAMERON MUNICIPAL AIRPORT,US,TX,S,KT35,30.879,-96.971,123.1,20120501,20220428
721035,352,HAZLEHURST AIRPORT,US,GA,S,KAZE,31.885,-82.647,78.0,20120705,20220429
721036,353,BOYSEN THERMOPOL,US,WY,W,KTBX,43.467,-108.389,2225.0,20120806,20220428
721036,99999,BOYSEN,US,WY,W,KTBX,43.467,-108.238,2225.0,20120503,20120713
721037,99999,KITTY HAWK ONE HELIPORT,US,NC,S,,36.072,-75.694,3.0,20120503,20220226
721038,99999,JORDAN FLD ARPT,US,NC,S,,35.238,-79.996,182.9,20120503,20200703
721041,99999,MARCO ISLAND,US,FL,S,KMKY,25.995,-81.673,1.5,20120726,20220427
721042,486,ZEPHYRHILLS MUNICIPAL AIRPORT,US,FL,S,KZPH,28.228,-82.156,27.4,20120813,20220429
721043,99999,ATHENS MUNI,US,TX,S,KF44,32.164,-95.828,135.3,20120813,20220427
721044,448,RALPH M HALL ROCKWALL MUNICIP,US,TX,S,KF46,32.931,-96.435,175.3,20120813,20220428
721045,354,MIDWEST NATIONAL AIR CENTER A,US,MO,MW,KGPH,39.332,-94.31,237.1,20120821,20220428
721045,99999,MIDWEST NAT AIR CENTER AIRPOR,US,MO,MW,KGPH,39.333,-94.31,236.8,20120818,20120820
721046,460,LOUISIANA REGIONAL AIRPORT,US,LA,S,KREG,30.173,-90.941,4.6,20170309,20220428
721046,99999,LOUISIANA RGNL ARPT / GONZALE,US,LA,S,KREG,30.167,-90.933,4.3,20120829,20170308
721048,471,PRESIDIO LELY INTERNATIONAL A,US,TX,S,KPRS,29.634,-104.361,896.1,20130731,20220428
722003,54930,STANTON AIRFIELD,US,MN,MW,KSYN,44.476,-93.016,280.4,20060101,20220428
722003,99999,STANTON AIRFIELD,US,MN,MW,KSYN,44.483,-93.017,280.0,19880106,20051231
722004,54922,HARRY STERN AIRPORT,US,ND,MW,KBWP,46.244,-96.607,295.1,20060101,20220428
722004,99999,HARRY STERN,US,ND,MW,KBWP,46.25,-96.6,295.0,20050719,20051231
722005,99999,COFFEY CO,US,KS,MW,KUKL,38.302,-95.725,357.5,20050427,20220427
722006,54926,QUENTIN AANENSON FIELD AIRPOR,US,MN,MW,KLYV,43.621,-96.216,436.2,20060101,20220429
722006,99999,LUVERNE QUENTIN AANE,US,MN,MW,KLYV,43.617,-96.217,436.0,20050208,20051231
722007,54828,TUSCOLA AREA AIRPORT,US,MI,MW,KCFS,43.459,-83.446,213.7,20050201,20220428
722008,12995,MUSTANG BEACH AIRPORT,US,TX,S,KRAS,27.812,-97.089,1.5,20060101,20220428
722008,99999,MUSTANG BEACH,US,TX,S,KRAS,27.833,-97.067,2.0,20050217,20051231
722010,12836,KEY WEST INTERNATIONAL AIRPOR,US,FL,S,KEYW,24.557,-81.755,0.3,19730101,20220428
722011,92813,KISSIMMEE GATEWAY AIRPORT,US,FL,S,KISM,28.29,-81.437,25.0,20060101,20220428
722011,99999,KISSIMMEE GATEWAY,US,FL,S,KISM,28.29,-81.437,25.0,20020423,20051231
722012,92817,THE VILLAGES,US,FL,S,KVVG,28.95,-81.967,27.1,20050101,20180215
722012,99999,THE VILLAGES,US,FL,S,KVVG,28.967,-81.967,27.0,20020423,20041231
722013,99999,KEY WEST / BOCA CHICA(NEXRAD),US,FL,S,KBYX,24.6,-81.7,3.0,19880105,19880704
722014,12818,HERNANDO COUNTY AIRPORT,US,FL,S,KBKV,28.474,-82.454,19.7,20060101,20220429
722014,99999,HERNANDO CO,US,FL,S,KBKV,28.474,-82.455,23.0,19990114,20051231
722015,12850,KEY WEST NAS,US,FL,S,KNQX,24.583,-81.683,1.8,19730101,20220428
722016,12896,THE FL KEYS MARATHON ARPT,US,FL,S,KMTH,24.726,-81.048,0.9,20060101,20220428
722016,99999,FLORIDA KEYS MARATHO,US,FL,S,KMTH,24.733,-81.05,2.0,19880318,20051231
722017,12876,WINTER HAVEN,US,FL,S,KGIF,28.062,-81.754,44.5,20060101,20100801
722017,99999,WINTER HAVEN,US,FL,S,KGIF,28.05,-81.75,44.0,19990114,20010516
722018,99999,CLOVIS(NEXRAD),US,NM,W,KFDX,34.633,-103.633,1417.0,20000101,20010516
722019,99999,ISLAMORADA COAST GUARD STATIO,US,FL,S,,24.95,-80.58,1.0,19750916,19920422
722020,12839,MIAMI INTERNATIONAL AIRPORT,US,FL,S,KMIA,25.788,-80.317,1.4,19730101,20220428
722021,92816,VANDENBERG AIRPORT,US,FL,S,KVDF,28.014,-82.345,6.7,20050101,20220429
722021,99999,VANDENBERG,US,FL,S,KVDF,28.017,-82.35,7.0,20020424,20041231
722022,12803,BOCA RATON AIRPORT,US,FL,S,KBCT,26.378,-80.108,4.0,20060101,20220428
722022,99999,BOCA RATON,US,FL,S,KBCT,26.378,-80.108,4.0,20020423,20051231
722024,12882,OPA LOCKA AIRPORT,US,FL,S,KOPF,25.91,-80.283,1.3,20060101,20220428
